Provider ID,Hospital name,State,ZIP Code,Latitude,Longitude,Review Score,Hip and Knee Replacement Score,Hip and Knee Replacement Lower,Hip and Knee Replacement Upper,Heart Failure Death Score,Heart Failure Death Lower,Heart Failure Death Upper,Blood clots post surgery Score,Blood clots post surgery Lower,Blood clots post surgery Upper,Heart Attack Death Score,Heart Attack Death Lower,Heart Attack Death Upper,Post surgery Sepsis Score,Post surgery Sepsis Lower,Post surgery Sepsis Upper,Postop Respiratory Failure Score,Postop Respiratory Failure Lower,Postop Respiratory Failure Upper,Postop Dialysis need Score,Postop Dialysis need Lower,Postop Dialysis need Upper,Surgical Complication Deaths Score,Surgical Complication Deaths Lower,Surgical Complication Deaths Upper,Pneumonia death Score,Pneumonia death Lower,Pneumonia death Upper,Stroke death Score,Stroke death Lower,Stroke death Upper,Num_OB/GYN,Num_Ortho,Num_Pediatric,Num_Addiction,Num_Prev_Care,Num_Assist
010001,SOUTHEAST ALABAMA MEDICAL CENTER,AL,36301,31.214058,-85.361725,,3.0,2.0,4.6,12.5,10.5,14.7,5.57,3.93,7.21,14.5,12.3,17.1,4.45,1.8,7.1,6.02,1.86,10.17,0.65,0,1.68,161.31,123.47,199.15,16.2,13.7,19.2,13.7,11.5,16.5,14,33,7,0,28,102
010005,MARSHALL MEDICAL CENTER SOUTH,AL,35957,34.22056,-86.159217,94.0,3.0,2.0,4.5,15.3,12.3,19.0,3.17,0.81,5.53,15.5,12.0,19.7,5.20,1.72,8.67,12.17,5.95,18.39,1.10,0,2.45,181.81,135.73,227.9,20.8,18.2,23.8,15.7,12.4,19.6,15,27,0,0,60,52
010006,ELIZA COFFEE MEMORIAL HOSPITAL,AL,35631,34.793659999999996,-87.684348,,3.6,2.4,5.2,13.2,11.1,15.6,3.31,1.32,5.29,14.9,12.3,17.9,4.95,1.07,8.82,7.19,0,15.23,1.28,0,2.73,181.42,141.18,221.67,17.2,14.9,19.7,17.2,14.2,20.7,12,16,0,2,27,80
010007,MIZELL MEMORIAL HOSPITAL,AL,36467,31.291971999999998,-86.255415,,2.8,1.5,4.9,13.3,9.1,18.6,4.76,1.87,7.64,Not Available,Not Available,Not Available,5.11,1.17,9.05,9.46,1.37,17.55,1.30,0,2.76,Not Available,Not Available,Not Available,21.6,17.0,26.7,15.9,11.7,21.4,4,1,0,0,17,16
010008,CRENSHAW COMMUNITY HOSPITAL,AL,36049,31.692595,-86.26615600000002,95.0,,Not Available,Not Available,12.9,8.8,18.8,Not Available,Not Available,Not Available,Not Available,Not Available,Not Available,Not Available,Not Available,Not Available,Not Available,Not Available,Not Available,Not Available,Not Available,Not Available,Not Available,Not Available,Not Available,15.7,11.7,21.1,Not Available,Not Available,Not Available,0,1,0,0,4,0
010011,ST VINCENT'S EAST,AL,35235,33.595351,-86.665182,,2.6,1.6,4.3,13.1,10.7,16.0,4.53,2.45,6.62,14.1,11.2,17.5,5.57,2.47,8.66,15.22,9.79,20.64,1.74,0.54,2.94,191.56,153.77,229.35,16.1,13.6,19.0,12.4,9.5,16.2,1,15,2,0,40,66
010012,DEKALB REGIONAL MEDICAL CENTER,AL,35968,34.551152,-85.738662,,,Not Available,Not Available,13.8,10.1,18.6,3.39,0.59,6.18,16,12.4,20.2,5.47,1.67,9.26,7.69,0.42,14.96,1.26,0,2.7,Not Available,Not Available,Not Available,21.9,18.2,26.0,15.1,11.5,19.8,4,8,0,0,24,12
010016,SHELBY BAPTIST MEDICAL CENTER,AL,35007,33.253679,-86.814261,,2.2,1.4,3.9,13.2,10.6,16.2,3.35,1.27,5.43,16,12.9,19.7,7.55,4.55,10.55,7.87,2.9,12.83,2.11,0.89,3.33,156.58,112.28,200.89,16.4,13.4,19.7,13.9,10.7,17.7,10,9,0,0,18,39
010018,CALLAHAN EYE HOSPITAL,AL,35233,33.503137,-86.802401,,,Not Available,Not Available,Not Available,Not Available,Not Available,3.77,0.83,6.72,Not Available,Not Available,Not Available,5.12,1.18,9.06,7.46,0,15.65,1.31,0,2.78,Not Available,Not Available,Not Available,Not Available,Not Available,Not Available,Not Available,Not Available,Not Available,0,0,0,0,0,29
010019,HELEN KELLER MEMORIAL HOSPITAL,AL,35660,34.748249,-87.69886600000002,93.0,2.1,1.3,3.2,13.9,11.0,17.3,2.94,0.52,5.36,14.1,10.7,18.4,Not Available,Not Available,Not Available,Not Available,Not Available,Not Available,Not Available,Not Available,Not Available,Not Available,Not Available,Not Available,16.2,13.2,19.7,15.7,12.0,20.5,5,11,0,0,31,41
010021,DALE MEDICAL CENTER,AL,36360,31.451345,-85.630966,97.0,,Not Available,Not Available,12.7,9.4,16.8,4.16,1.28,7.04,Not Available,Not Available,Not Available,5.78,2.13,9.43,15.15,8.66,21.64,1.23,0,2.66,Not Available,Not Available,Not Available,14.1,11.0,17.7,Not Available,Not Available,Not Available,2,0,0,0,23,10
010022,FLOYD CHEROKEE MEDICAL CENTER,AL,35960,34.162760999999996,-85.65142,,,Not Available,Not Available,12.6,8.4,18.0,Not Available,Not Available,Not Available,Not Available,Not Available,Not Available,Not Available,Not Available,Not Available,Not Available,Not Available,Not Available,Not Available,Not Available,Not Available,Not Available,Not Available,Not Available,17.3,12.7,22.7,Not Available,Not Available,Not Available,0,0,0,0,10,9
010023,BAPTIST MEDICAL CENTER SOUTH,AL,36116,32.327144,-86.276764,,2.5,1.7,3.6,12.7,10.5,15.4,4.42,2.63,6.20,13.1,10.6,15.9,2.90,0,5.87,7.90,3.34,12.46,0.89,0,2.1,192.09,154.11,230.07,18.5,15.3,22.5,14.7,11.9,17.9,29,22,0,3,92,129
010024,JACKSON HOSPITAL & CLINIC INC,AL,36106,32.366606,-86.285155,,2.0,1.2,3.2,13.2,10.8,15.9,3.20,1.25,5.15,14,11.5,17.1,4.38,1.52,7.25,9.52,4.75,14.29,0.75,0,1.85,197.44,154.09,240.8,18.6,16.1,21.2,11.5,9.1,14.4,8,1,0,0,20,50
010029,EAST ALABAMA MEDICAL CENTER,AL,36801,32.638055,-85.404003,,3.0,2.1,4.2,13,10.6,15.5,3.30,1.46,5.13,17.4,14.2,20.9,4.24,1.27,7.2,8.84,3.81,13.88,1.09,0,2.25,184.82,144.66,224.99,16.9,14.4,19.7,15.4,12.6,18.5,12,30,2,0,39,42
010032,TANNER MEDICAL CENTER-EAST ALABAMA,AL,36278,33.296665999999995,-85.480028,,,Not Available,Not Available,12.3,8.4,17.3,Not Available,Not Available,Not Available,Not Available,Not Available,Not Available,Not Available,Not Available,Not Available,Not Available,Not Available,Not Available,Not Available,Not Available,Not Available,Not Available,Not Available,Not Available,16.9,12.0,22.9,Not Available,Not Available,Not Available,0,0,0,0,9,14
010033,UNIVERSITY OF ALABAMA HOSPITAL,AL,35233,33.506129,-86.80192199999998,95.0,3.3,2.2,4.9,8.1,6.5,10.0,4.12,3.04,5.21,12,9.9,14.5,5.83,4.35,7.3,7.02,4.63,9.4,0.60,0,1.26,186.23,163.45,209,12.1,10.2,14.3,15.4,12.9,18.2,39,25,15,1,13,342
010034,COMMUNITY HOSPITAL INC,AL,36078,32.535292999999996,-85.911996,,,Not Available,Not Available,9.9,6.9,13.9,3.79,0.84,6.75,Not Available,Not Available,Not Available,Not Available,Not Available,Not Available,Not Available,Not Available,Not Available,Not Available,Not Available,Not Available,Not Available,Not Available,Not Available,14.4,10.9,18.8,13.3,9.6,18.5,0,0,0,0,9,9
010035,CULLMAN REGIONAL MEDICAL CENTER,AL,35058,34.198586999999996,-86.80564100000002,92.0,2.8,1.8,4.3,12.8,10.4,15.6,3.73,1.31,6.15,14.4,11.2,18.3,6.81,3.23,10.39,8.92,2.43,15.41,1.66,0.22,3.09,178.82,127.76,229.87,19.1,16.3,22.2,17,13.0,21.8,9,14,5,0,47,57
010036,ANDALUSIA HEALTH,AL,36420,31.297462,-86.495599,,2.7,1.6,4.6,9.3,6.7,12.7,3.65,0.95,6.35,12.7,9.6,16.3,Not Available,Not Available,Not Available,Not Available,Not Available,Not Available,Not Available,Not Available,Not Available,Not Available,Not Available,Not Available,15.3,12.3,18.9,12.9,9.8,16.7,2,1,0,0,14,28
010038,STRINGFELLOW MEMORIAL HOSPITAL,AL,36201,33.667701,-85.825025,,2.2,1.2,3.9,12.4,9.1,16.6,3.25,0.52,5.99,13.5,10.3,17.3,5.38,1.62,9.15,7.42,0.27,14.58,1.28,0,2.73,Not Available,Not Available,Not Available,13.5,10.4,17.5,14.3,10.2,19.6,1,2,0,0,7,10
010039,HUNTSVILLE HOSPITAL,AL,35801,34.721226,-86.581547,,1.9,1.4,2.6,12.5,11.0,14.2,3.51,2.26,4.76,13.9,12.1,15.9,4.90,2.91,6.89,8.28,5.22,11.35,1.45,0.61,2.3,218.53,187.73,249.32,18.5,16.9,20.2,16.8,14.7,19.0,28,63,3,1,166,265
010040,GADSDEN REGIONAL MEDICAL CENTER,AL,35903,34.009389,-85.96752,,3.6,2.5,5.3,11.6,9.3,14.4,4.02,1.99,6.05,13.3,10.6,16.6,7.57,4.65,10.5,8.94,4.49,13.39,1.20,0,2.42,150.87,114.02,187.72,17.3,14.7,20.3,11.3,8.7,14.4,15,34,0,0,42,52
010044,MARION REGIONAL MEDICAL CENTER,AL,35570,34.125852,-87.989806,100.0,,Not Available,Not Available,9.9,6.6,14.5,Not Available,Not Available,Not Available,Not Available,Not Available,Not Available,Not Available,Not Available,Not Available,Not Available,Not Available,Not Available,Not Available,Not Available,Not Available,Not Available,Not Available,Not Available,13.5,9.9,18.4,Not Available,Not Available,Not Available,0,0,0,0,12,13
010045,FAYETTE MEDICAL CENTER,AL,35555,33.707708000000004,-87.823706,96.0,,Not Available,Not Available,11.5,8.2,15.8,3.76,0.82,6.71,Not Available,Not Available,Not Available,Not Available,Not Available,Not Available,Not Available,Not Available,Not Available,Not Available,Not Available,Not Available,Not Available,Not Available,Not Available,15.7,12.2,20.0,14.3,10.4,19.1,1,4,0,0,23,16
010046,RIVERVIEW REGIONAL MEDICAL CENTER,AL,35901,34.003811,-86.004086,,2.7,1.6,4.5,8.1,6.2,10.7,2.41,0.05,4.77,12.2,9.3,16.1,4.14,0.84,7.43,6.27,0.9,11.65,1.02,0,2.32,168.96,121.3,216.62,15.4,12.6,18.6,12.5,9.4,16.5,0,18,0,0,13,12
010047,GEORGIANA MEDICAL CENTER,AL,36033,31.636334,-86.742751,,,Not Available,Not Available,11.9,8.2,16.6,Not Available,Not Available,Not Available,Not Available,Not Available,Not Available,Not Available,Not Available,Not Available,Not Available,Not Available,Not Available,Not Available,Not Available,Not Available,Not Available,Not Available,Not Available,15.2,11.3,20.1,Not Available,Not Available,Not Available,0,0,0,0,3,4
010049,MEDICAL CENTER ENTERPRISE,AL,36330,31.318191,-85.855308,,2.1,1.2,3.4,13.9,10.2,18.7,3.08,0.42,5.74,Not Available,Not Available,Not Available,4.65,0.89,8.41,7.12,0.1,14.13,1.28,0,2.73,Not Available,Not Available,Not Available,16.8,13.0,21.4,16.2,12.2,21.6,5,8,0,0,12,25
010051,GREENE COUNTY HOSPITAL,AL,35462,32.844744,-87.88930699999996,,,Not Available,Not Available,Not Available,Not Available,Not Available,Not Available,Not Available,Not Available,Not Available,Not Available,Not Available,Not Available,Not Available,Not Available,Not Available,Not Available,Not Available,Not Available,Not Available,Not Available,Not Available,Not Available,Not Available,Not Available,Not Available,Not Available,Not Available,Not Available,Not Available,0,0,0,0,3,2
010052,LAKE MARTIN COMMUNITY HOSPITAL,AL,36853,32.8187,-85.74175799999998,,,Not Available,Not Available,Not Available,Not Available,Not Available,Not Available,Not Available,Not Available,Not Available,Not Available,Not Available,Not Available,Not Available,Not Available,Not Available,Not Available,Not Available,Not Available,Not Available,Not Available,Not Available,Not Available,Not Available,13.9,10.2,18.5,Not Available,Not Available,Not Available,0,2,0,0,9,0
010055,FLOWERS HOSPITAL,AL,36305,31.235991,-85.457937,,3.0,2.0,4.4,14.6,12.0,17.8,4.32,2.41,6.24,13.9,11.1,17.2,4.25,1.66,6.83,8.34,4.79,11.88,1.06,0,2.2,186.41,144.93,227.89,16.6,14.0,19.6,16.7,13.5,20.5,14,38,7,0,41,105
010056,ST VINCENT'S BIRMINGHAM,AL,35205,33.508015,-86.78875500000002,,2.4,1.8,3.3,9.6,7.7,12.0,4.45,2.81,6.09,14.5,11.7,18.0,5.22,2.87,7.58,11.11,7.57,14.64,1.58,0.52,2.63,177.32,137.79,216.85,14.2,12.2,16.4,14.1,11.4,17.2,22,36,0,0,30,70
010058,BIBB MEDICAL CENTER,AL,35042,32.951101,-87.147865,,,Not Available,Not Available,12.3,8.3,18.1,Not Available,Not Available,Not Available,Not Available,Not Available,Not Available,Not Available,Not Available,Not Available,Not Available,Not Available,Not Available,Not Available,Not Available,Not Available,Not Available,Not Available,Not Available,17.5,13.1,23.3,Not Available,Not Available,Not Available,7,0,0,0,25,8
010059,LAWRENCE MEDICAL CENTER,AL,35650,34.482884000000006,-87.286019,95.0,,Not Available,Not Available,11.3,7.7,15.8,Not Available,Not Available,Not Available,Not Available,Not Available,Not Available,Not Available,Not Available,Not Available,Not Available,Not Available,Not Available,Not Available,Not Available,Not Available,Not Available,Not Available,Not Available,15,11.2,19.8,Not Available,Not Available,Not Available,0,0,0,0,17,12
010061,HIGHLANDS MEDICAL CENTER,AL,35768,34.661254,-86.047116,89.0,2.7,1.5,4.6,13.4,9.8,18.2,4.06,1.22,6.91,Not Available,Not Available,Not Available,5.04,1.13,8.95,8.57,0.88,16.25,1.29,0,2.75,Not Available,Not Available,Not Available,13.6,10.6,17.3,13.5,9.6,18.8,2,7,0,0,34,14
010062,WIREGRASS MEDICAL CENTER,AL,36340,31.048063,-85.890837,95.0,,Not Available,Not Available,12.4,9.0,17.2,3.75,0.81,6.69,Not Available,Not Available,Not Available,5.02,1.12,8.92,6.61,0,14.32,1.29,0,2.76,Not Available,Not Available,Not Available,14.4,10.8,19.1,Not Available,Not Available,Not Available,0,0,0,0,9,4
010065,RUSSELL MEDICAL CENTER,AL,35010,32.93103,-85.96839399999998,92.0,3.0,1.8,5.2,12.7,9.7,16.6,5.10,2.41,7.79,12.6,9.5,16.5,4.93,1.06,8.8,6.60,0,14.3,1.29,0,2.74,Not Available,Not Available,Not Available,17.9,14.9,21.4,14.8,11.1,19.8,6,6,0,0,13,27
010069,MEDICAL CENTER BARBOUR,AL,36027,31.88798,-85.15661300000002,,,Not Available,Not Available,10.9,7.6,15.4,3.77,0.83,6.72,Not Available,Not Available,Not Available,Not Available,Not Available,Not Available,Not Available,Not Available,Not Available,Not Available,Not Available,Not Available,Not Available,Not Available,Not Available,14.9,11.1,19.8,13.6,9.8,18.3,1,2,0,0,10,12
010073,CLAY COUNTY HOSPITAL,AL,36251,33.276548,-85.823789,96.0,,Not Available,Not Available,12.8,8.7,18.4,Not Available,Not Available,Not Available,Not Available,Not Available,Not Available,Not Available,Not Available,Not Available,Not Available,Not Available,Not Available,Not Available,Not Available,Not Available,Not Available,Not Available,Not Available,19.3,14.6,25.0,Not Available,Not Available,Not Available,0,4,0,0,28,2
010078,NORTHEAST ALABAMA REGIONAL MEDICAL CENTER,AL,36207,33.657123,-85.823353,91.0,3.7,2.5,5.4,12.8,10.6,15.4,2.10,0.18,4.01,11.8,9.5,14.4,4.26,1.69,6.84,10.34,6.47,14.2,1.93,0.84,3.02,199.40,155.35,243.45,18.3,15.6,21.5,13.4,10.3,17.0,9,13,2,0,49,44
010079,ATHENS LIMESTONE HOSPITAL,AL,35611,34.803499,-86.97780300000002,94.0,3.1,2.0,4.7,9.6,6.9,13.0,3.34,0.76,5.92,Not Available,Not Available,Not Available,5.31,1.57,9.05,5.58,0,12.67,1.28,0,2.73,Not Available,Not Available,Not Available,18.3,14.9,22.0,15.4,11.4,20.3,3,7,0,0,21,43
010083,SOUTH BALDWIN REGIONAL MEDICAL CENTER,AL,36535,30.426109000000004,-87.683187,,2.7,1.6,4.4,10.5,8.2,13.5,3.93,1.45,6.41,14.4,11.2,18.5,5.12,1.45,8.8,10.06,3.17,16.95,1.25,0,2.68,159.48,108.18,210.77,15.4,12.3,18.8,15.9,12.0,21.1,7,14,2,0,48,48
010085,DECATUR MORGAN HOSPITAL-DECATUR CAMPUS,AL,35601,34.591167999999996,-86.97262099999998,89.0,2.6,1.7,4.0,10.8,8.9,13.2,3.95,1.78,6.12,13.3,10.2,16.9,Not Available,Not Available,Not Available,Not Available,Not Available,Not Available,Not Available,Not Available,Not Available,170.56,126.65,214.46,17.7,15.3,20.5,15.6,12.4,19.3,9,9,2,0,47,47
010086,NORTHWEST MEDICAL CENTER,AL,35594,33.929316,-87.824507,,,Not Available,Not Available,13.7,10.1,18.5,3.73,0.80,6.65,Not Available,Not Available,Not Available,5.08,1.15,9,7.03,0,14.98,1.27,0,2.72,Not Available,Not Available,Not Available,16,12.6,20.3,16.9,12.5,22.1,2,2,0,0,13,10
010087,UNIVERSITY OF SOUTH ALABAMA MEDICAL CENTER,AL,36617,30.708121000000002,-88.099441,,,Not Available,Not Available,11.9,7.8,17.9,3.26,0.87,5.65,Not Available,Not Available,Not Available,4.34,0.97,7.72,5.29,0,11.32,1.18,0,2.58,145.55,101.53,189.56,17.3,12.8,23.0,15.9,11.8,20.6,7,12,8,0,23,65
010089,WALKER BAPTIST MEDICAL CENTER,AL,35502,33.841142,-87.236879,,2.3,1.5,3.7,13.5,10.4,17.7,3.54,1.05,6.03,14.1,10.7,18.5,5.00,1.37,8.63,8.20,1.98,14.41,1.26,0,2.69,Not Available,Not Available,Not Available,20.6,17.0,24.9,13.7,10.3,18.0,10,5,2,0,15,11
010090,PROVIDENCE HOSPITAL,AL,36608,30.681690000000003,-88.198329,,2.4,1.5,3.6,15,12.4,18.0,4.40,2.41,6.39,16.5,13.4,20.2,4.60,1.66,7.54,13.69,8.69,18.7,1.81,0.69,2.94,188.22,144.05,232.4,14.8,12.4,17.4,17.6,14.1,21.6,12,21,1,0,37,60
010091,GROVE HILL MEMORIAL HOSPITAL,AL,36451,31.694213,-87.777231,,,Not Available,Not Available,11.7,7.9,17.1,Not Available,Not Available,Not Available,Not Available,Not Available,Not Available,Not Available,Not Available,Not Available,Not Available,Not Available,Not Available,Not Available,Not Available,Not Available,Not Available,Not Available,Not Available,15.7,11.6,20.9,Not Available,Not Available,Not Available,1,1,2,0,7,15
010092,D C H REGIONAL MEDICAL CENTER,AL,35401,33.20613,-87.525154,93.0,2.5,1.8,3.6,12.7,10.8,14.9,4.94,3.41,6.46,13.4,11.1,16.0,Not Available,Not Available,Not Available,Not Available,Not Available,Not Available,Not Available,Not Available,Not Available,167.15,134.01,200.3,17.3,15.5,19.3,13.8,11.8,16.2,32,28,0,3,133,55
010095,HALE COUNTY HOSPITAL,AL,36744,32.412098,-87.018633,,,Not Available,Not Available,11.8,8.2,16.8,Not Available,Not Available,Not Available,Not Available,Not Available,Not Available,Not Available,Not Available,Not Available,Not Available,Not Available,Not Available,Not Available,Not Available,Not Available,Not Available,Not Available,Not Available,15,11.3,19.9,Not Available,Not Available,Not Available,0,0,0,0,6,1
010097,ELMORE COMMUNITY HOSPITAL,AL,36092,32.551957,-86.185643,,,Not Available,Not Available,10.1,6.9,15.0,Not Available,Not Available,Not Available,Not Available,Not Available,Not Available,Not Available,Not Available,Not Available,Not Available,Not Available,Not Available,Not Available,Not Available,Not Available,Not Available,Not Available,Not Available,13.6,9.8,18.4,Not Available,Not Available,Not Available,0,0,0,0,14,9
010099,D W MCMILLAN MEMORIAL HOSPITAL,AL,36426,31.127105,-87.072378,,,Not Available,Not Available,11.5,7.8,16.2,3.73,0.80,6.66,14.3,10.8,18.6,5.11,1.17,9.04,7.07,0,15.05,1.30,0,2.77,Not Available,Not Available,Not Available,21.3,17.0,26.8,15.5,11.4,20.9,3,6,0,0,10,14
010100,THOMAS HOSPITAL,AL,36532,30.519999,-87.890333,97.0,2.9,2.0,4.2,12.9,10.1,16.2,6.35,4.35,8.36,11.7,9.0,14.9,4.84,1.67,8.01,7.53,1.57,13.49,1.22,0,2.44,199.30,155.21,243.38,17,14.3,19.9,13.6,10.7,17.2,17,21,0,0,36,36
010101,CITIZENS BAPTIST MEDICAL CENTER,AL,35161,33.439801,-86.090641,,,Not Available,Not Available,13.3,9.3,18.7,4.18,1.30,7.07,Not Available,Not Available,Not Available,Not Available,Not Available,Not Available,Not Available,Not Available,Not Available,Not Available,Not Available,Not Available,Not Available,Not Available,Not Available,18.7,14.2,23.8,14.8,10.5,20.2,0,2,0,0,12,19
010102,J PAUL JONES HOSPITAL,AL,36726,31.996610999999998,-87.299424,,,Not Available,Not Available,Not Available,Not Available,Not Available,Not Available,Not Available,Not Available,Not Available,Not Available,Not Available,Not Available,Not Available,Not Available,Not Available,Not Available,Not Available,Not Available,Not Available,Not Available,Not Available,Not Available,Not Available,16.6,12.0,22.6,Not Available,Not Available,Not Available,0,0,0,0,7,3
010103,PRINCETON BAPTIST MEDICAL CENTER,AL,35211,33.499133,-86.846016,,2.4,1.5,3.8,12.4,9.8,15.6,6.50,4.63,8.37,16.4,13.1,20.3,7.73,5.29,10.17,6.60,2.03,11.17,1.73,0.8,2.65,132.00,95.51,168.5,18.9,15.7,22.5,15.7,12.5,19.6,5,5,2,0,22,58
010104,GRANDVIEW MEDICAL CENTER,AL,35243,33.434363,-86.720483,,3.5,2.5,4.8,11.8,9.3,14.7,3.94,2.11,5.76,13.6,10.9,17.1,4.97,2.46,7.48,9.17,5.21,13.12,1.37,0.3,2.43,210.15,168.86,251.44,16.2,13.2,19.4,14.4,11.3,18.3,18,65,0,1,74,124
010108,PRATTVILLE BAPTIST HOSPITAL,AL,36067,32.464423,-86.450936,,,Not Available,Not Available,8.2,5.9,11.3,3.65,0.75,6.54,13.1,10.0,17.0,4.96,1.08,8.84,8.97,1.13,16.82,1.30,0,2.77,Not Available,Not Available,Not Available,15.5,12.6,18.8,15.2,11.2,20.1,3,0,0,0,28,40
010109,PICKENS COUNTY MEDICAL CENTER,AL,35447,33.274807,-88.089673,90.0,,Not Available,Not Available,12.3,8.2,18.2,Not Available,Not Available,Not Available,Not Available,Not Available,Not Available,Not Available,Not Available,Not Available,Not Available,Not Available,Not Available,Not Available,Not Available,Not Available,Not Available,Not Available,Not Available,15,10.8,20.4,Not Available,Not Available,Not Available,6,3,0,0,24,5
010110,BULLOCK COUNTY HOSPITAL,AL,36089,32.146182,-85.71638,,,Not Available,Not Available,Not Available,Not Available,Not Available,Not Available,Not Available,Not Available,Not Available,Not Available,Not Available,Not Available,Not Available,Not Available,Not Available,Not Available,Not Available,Not Available,Not Available,Not Available,Not Available,Not Available,Not Available,16.8,11.8,23.3,Not Available,Not Available,Not Available,0,0,0,0,5,0
010112,BRYAN W. WHITFIELD MEMORIAL HOSPITAL,AL,36732,32.503676,-87.836744,,,Not Available,Not Available,9.7,6.5,14.0,3.82,0.85,6.78,Not Available,Not Available,Not Available,Not Available,Not Available,Not Available,Not Available,Not Available,Not Available,Not Available,Not Available,Not Available,Not Available,Not Available,Not Available,14.7,11.1,19.6,Not Available,Not Available,Not Available,6,5,0,0,45,6
010113,MOBILE INFIRMARY MEDICAL CENTER,AL,36652,30.696443,-88.081017,95.0,3.1,2.1,4.3,11.9,9.9,14.3,7.90,6.33,9.46,13.9,11.3,17.2,6.80,4.18,9.43,6.74,2.53,10.95,0.74,0,1.84,177.91,141.84,213.98,17.6,15.4,20.3,12.5,9.9,15.6,14,35,5,0,41,95
010114,"MEDICAL WEST, AN AFFILIATE OF UAB HEALTH SYSTEM",AL,35021,33.373086,-86.991709,,2.5,1.4,4.5,11.6,8.6,15.4,3.24,0.70,5.78,12.9,9.7,16.8,6.42,2.77,10.07,9.64,2.9,16.37,1.23,0,2.66,162.45,118.63,206.28,17.1,14.0,21.0,12.3,9.0,16.6,12,14,0,0,46,51
010118,VAUGHAN REGIONAL MEDICAL CENTER PARKWAY CAMPUS,AL,36701,32.430248,-87.055174,,,Not Available,Not Available,12.7,9.8,16.3,3.65,0.95,6.34,14.6,11.4,18.6,4.20,0.63,7.77,7.62,1.15,14.1,1.15,0,2.53,Not Available,Not Available,Not Available,17.8,14.5,21.4,14.4,10.9,18.8,7,6,0,0,12,7
010120,MONROE COUNTY HOSPITAL,AL,36460,31.497839000000003,-87.319411,95.0,,Not Available,Not Available,12.2,8.5,17.0,Not Available,Not Available,Not Available,Not Available,Not Available,Not Available,Not Available,Not Available,Not Available,Not Available,Not Available,Not Available,Not Available,Not Available,Not Available,Not Available,Not Available,Not Available,19,14.6,24.1,13.6,9.9,18.6,7,2,0,0,12,10
010125,LAKELAND COMMUNITY HOSPITAL,AL,35565,34.241718,-87.589857,,,Not Available,Not Available,11,7.4,16.1,Not Available,Not Available,Not Available,Not Available,Not Available,Not Available,Not Available,Not Available,Not Available,Not Available,Not Available,Not Available,Not Available,Not Available,Not Available,Not Available,Not Available,Not Available,12.2,9.7,15.4,Not Available,Not Available,Not Available,0,0,2,0,14,4
010126,TROY REGIONAL MEDICAL CENTER,AL,36081,31.780321999999998,-85.94552900000002,91.0,2.4,1.3,4.4,13.1,9.2,18.5,3.57,0.70,6.44,Not Available,Not Available,Not Available,4.88,1.03,8.72,10.88,3.07,18.69,1.29,0,2.75,Not Available,Not Available,Not Available,20.7,15.9,26.2,13.7,9.7,18.9,1,1,0,0,12,7
010128,JACKSON MEDICAL CENTER,AL,36545,31.530482,-87.89318,,,Not Available,Not Available,12.8,8.3,18.9,Not Available,Not Available,Not Available,Not Available,Not Available,Not Available,Not Available,Not Available,Not Available,Not Available,Not Available,Not Available,Not Available,Not Available,Not Available,Not Available,Not Available,Not Available,16.8,12.3,22.5,Not Available,Not Available,Not Available,1,0,0,0,8,2
010129,NORTH BALDWIN INFIRMARY,AL,36507,30.902492,-87.78331800000002,93.0,,Not Available,Not Available,12.7,9.0,17.8,3.58,0.71,6.45,Not Available,Not Available,Not Available,5.12,1.18,9.07,7.46,0,15.65,1.31,0,2.78,Not Available,Not Available,Not Available,19.6,15.6,23.8,Not Available,Not Available,Not Available,2,2,0,0,12,7
010130,ST VINCENT'S ST CLAIR,AL,35125,33.605568,-86.30238,,,Not Available,Not Available,11.4,8.2,15.4,3.77,0.83,6.72,Not Available,Not Available,Not Available,Not Available,Not Available,Not Available,7.03,0,14.99,1.30,0,2.77,Not Available,Not Available,Not Available,12.7,10.0,16.0,13.8,10.3,18.4,6,2,0,0,17,33
010131,CRESTWOOD MEDICAL CENTER,AL,35801,34.718428,-86.556439,,3.4,2.4,4.7,12.6,9.9,15.7,3.25,1.28,5.21,12.4,9.8,15.3,5.87,2.82,8.92,6.25,2,10.5,1.51,0.14,2.87,179.01,132.46,225.57,15.5,13.2,18.0,14.6,11.3,18.7,7,40,0,0,54,75
010138,HILL HOSPITAL OF SUMTER COUNTY,AL,36925,32.491825,-88.296081,,,Not Available,Not Available,Not Available,Not Available,Not Available,Not Available,Not Available,Not Available,Not Available,Not Available,Not Available,Not Available,Not Available,Not Available,Not Available,Not Available,Not Available,Not Available,Not Available,Not Available,Not Available,Not Available,Not Available,Not Available,Not Available,Not Available,Not Available,Not Available,Not Available,0,0,0,0,1,1
010139,BROOKWOOD BAPTIST MEDICAL CENTER,AL,35209,33.46291,-86.77685,,3.0,2.1,4.2,13.5,11.0,16.5,3.19,1.32,5.07,12.4,9.9,15.5,Not Available,Not Available,Not Available,Not Available,Not Available,Not Available,Not Available,Not Available,Not Available,172.24,131.63,212.85,17.1,14.4,20.3,13.6,10.6,17.2,8,26,0,0,13,54
010144,SPRINGHILL MEMORIAL HOSPITAL,AL,36608,30.685946,-88.13171899999998,94.0,2.0,1.2,3.3,13.1,10.4,16.3,4.18,1.95,6.41,14.6,11.3,18.6,6.77,3.74,9.8,20.46,15.14,25.79,0.82,0,1.99,185.62,139.77,231.48,16.4,13.5,19.7,14.1,10.8,17.9,23,18,2,0,24,67
010146,RMC JACKSONVILLE,AL,36265,33.785191,-85.761263,,,Not Available,Not Available,Not Available,Not Available,Not Available,Not Available,Not Available,Not Available,Not Available,Not Available,Not Available,Not Available,Not Available,Not Available,Not Available,Not Available,Not Available,Not Available,Not Available,Not Available,Not Available,Not Available,Not Available,17.6,12.7,23.6,Not Available,Not Available,Not Available,0,0,0,0,0,0
010148,EVERGREEN MEDICAL CENTER,AL,36401,31.431259999999998,-86.94205,90.0,,Not Available,Not Available,11.5,8.1,15.9,Not Available,Not Available,Not Available,Not Available,Not Available,Not Available,Not Available,Not Available,Not Available,Not Available,Not Available,Not Available,Not Available,Not Available,Not Available,Not Available,Not Available,Not Available,13.5,9.9,18.0,13.8,9.9,18.9,0,0,0,0,7,0
010149,BAPTIST MEDICAL CENTER EAST,AL,36117,32.376821,-86.172095,,,Not Available,Not Available,12.1,9.5,15.2,3.06,0.59,5.53,12.6,9.6,16.0,4.85,1.28,8.42,8.62,2.28,14.97,1.22,0,2.65,168.66,119.84,217.48,12.4,9.9,15.2,12.3,9.2,15.9,5,25,0,0,57,48
010150,L V STABLER MEMORIAL HOSPITAL,AL,36037,31.82945,-86.64586,,2.6,1.4,4.5,11.3,8.0,15.9,4.24,1.33,7.14,Not Available,Not Available,Not Available,4.89,1.04,8.75,10.75,3.03,18.48,1.28,0,2.73,Not Available,Not Available,Not Available,14.8,10.9,20.0,15.6,10.9,22.0,0,1,1,0,7,1
010157,SHOALS HOSPITAL,AL,35661,34.744941,-87.676511,,3.3,1.9,5.7,11,7.7,15.5,3.49,0.66,6.33,Not Available,Not Available,Not Available,Not Available,Not Available,Not Available,Not Available,Not Available,Not Available,Not Available,Not Available,Not Available,Not Available,Not Available,Not Available,15.4,11.7,19.6,Not Available,Not Available,Not Available,1,4,0,2,27,25
010158,RUSSELLVILLE HOSPITAL,AL,35653,34.511165000000005,-87.717585,,3.5,2.0,6.2,10.6,7.2,15.4,3.60,0.72,6.48,Not Available,Not Available,Not Available,4.99,1.1,8.88,6.70,0,14.47,1.30,0,2.76,Not Available,Not Available,Not Available,15.1,11.7,19.4,16.4,12.2,21.4,6,1,1,0,14,6
010164,COOSA VALLEY MEDICAL CENTER,AL,35150,33.164666,-86.254598,93.0,2.9,1.7,5.1,11.9,8.4,16.6,4.37,1.60,7.14,13.4,10.3,17.3,5.67,1.81,9.53,8.65,0.91,16.38,1.29,0,2.75,Not Available,Not Available,Not Available,20.4,16.6,24.5,13.8,10.3,18.1,2,1,0,0,13,13
010168,JACK HUGHSTON MEMORIAL HOSPITAL,AL,36867,32.509045,-85.005696,95.0,2.7,2.0,3.5,11.9,7.7,17.3,4.10,1.79,6.40,Not Available,Not Available,Not Available,3.95,0.48,7.41,5.13,0,10.5,1.23,0,2.66,Not Available,Not Available,Not Available,14.5,10.2,20.5,Not Available,Not Available,Not Available,0,136,0,3,13,62
010169,ATMORE COMMUNITY HOSPITAL,AL,36502,31.01657,-87.47973499999998,90.0,,Not Available,Not Available,10,7.2,13.7,3.82,0.85,6.78,Not Available,Not Available,Not Available,Not Available,Not Available,Not Available,Not Available,Not Available,Not Available,Not Available,Not Available,Not Available,Not Available,Not Available,Not Available,15.7,12.1,19.9,Not Available,Not Available,Not Available,0,2,0,0,7,3
010173,ST VINCENT'S CHILTON,AL,35045,32.876585,-86.623511,,,Not Available,Not Available,Not Available,Not Available,Not Available,Not Available,Not Available,Not Available,Not Available,Not Available,Not Available,Not Available,Not Available,Not Available,Not Available,Not Available,Not Available,Not Available,Not Available,Not Available,Not Available,Not Available,Not Available,Not Available,Not Available,Not Available,Not Available,Not Available,Not Available,0,6,0,0,3,11
011300,WASHINGTON COUNTY HOSPITAL,AL,36518,31.460296000000003,-88.235291,,,Not Available,Not Available,Not Available,Not Available,Not Available,Not Available,Not Available,Not Available,Not Available,Not Available,Not Available,Not Available,Not Available,Not Available,Not Available,Not Available,Not Available,Not Available,Not Available,Not Available,Not Available,Not Available,Not Available,Not Available,Not Available,Not Available,Not Available,Not Available,Not Available,0,0,0,0,10,6
011302,RED BAY HOSPITAL,AL,35582,34.457425,-88.146934,,,Not Available,Not Available,Not Available,Not Available,Not Available,Not Available,Not Available,Not Available,Not Available,Not Available,Not Available,Not Available,Not Available,Not Available,Not Available,Not Available,Not Available,Not Available,Not Available,Not Available,Not Available,Not Available,Not Available,14.8,10.4,20.7,Not Available,Not Available,Not Available,0,0,0,0,14,1
011304,CHOCTAW GENERAL HOSPITAL,AL,36904,32.098332,-88.211845,,,Not Available,Not Available,Not Available,Not Available,Not Available,Not Available,Not Available,Not Available,Not Available,Not Available,Not Available,Not Available,Not Available,Not Available,Not Available,Not Available,Not Available,Not Available,Not Available,Not Available,Not Available,Not Available,Not Available,Not Available,Not Available,Not Available,Not Available,Not Available,Not Available,1,1,2,0,12,2
011305,ST VINCENTS BLOUNT,AL,35121,33.932536999999996,-86.493059,,,Not Available,Not Available,10.2,7.0,15.0,Not Available,Not Available,Not Available,Not Available,Not Available,Not Available,Not Available,Not Available,Not Available,Not Available,Not Available,Not Available,Not Available,Not Available,Not Available,Not Available,Not Available,Not Available,16,12.2,20.8,Not Available,Not Available,Not Available,0,1,0,0,15,12
013300,CHILDREN'S HOSPITAL OF ALABAMA,AL,35233,33.503221999999994,-86.80538100000004,,,Not Available,Not Available,Not Available,Not Available,Not Available,Not Available,Not Available,Not Available,Not Available,Not Available,Not Available,Not Available,Not Available,Not Available,Not Available,Not Available,Not Available,Not Available,Not Available,Not Available,Not Available,Not Available,Not Available,Not Available,Not Available,Not Available,Not Available,Not Available,Not Available,0,0,5,0,0,0
013301,UNIVERSITY OF S A CHILDREN'S AND WOMEN'S HOS,AL,36604,30.696082,-88.076883,,,Not Available,Not Available,Not Available,Not Available,Not Available,Not Available,Not Available,Not Available,Not Available,Not Available,Not Available,Not Available,Not Available,Not Available,Not Available,Not Available,Not Available,Not Available,Not Available,Not Available,Not Available,Not Available,Not Available,Not Available,Not Available,Not Available,Not Available,Not Available,Not Available,35,0,0,0,0,15
020001,PROVIDENCE ALASKA MEDICAL CENTER,AK,99508,61.189797999999996,-149.817622,96.0,3.0,2.0,4.5,13.3,10.7,16.3,3.69,1.93,5.46,12.1,9.8,14.8,5.22,2.74,7.7,5.55,1.58,9.51,0.90,0,1.96,170.64,134.89,206.39,18,15.4,21.3,15.1,12.1,18.3,16,29,7,0,84,163
020006,MAT-SU REGIONAL MEDICAL CENTER,AK,99645,61.561217000000006,-149.258718,,3.0,1.8,5.2,12.7,9.1,17.3,4.91,2.39,7.43,13.8,10.5,18.0,4.20,0.63,7.78,10.12,3.71,16.54,1.23,0,2.65,165.66,116.22,215.1,16.7,13.5,20.7,14.1,10.6,18.8,5,10,0,2,43,99
020008,BARTLETT REGIONAL HOSPITAL,AK,99801,58.328695999999994,-134.466829,,2.3,1.3,4.0,11.6,7.7,16.7,3.52,0.67,6.36,Not Available,Not Available,Not Available,Not Available,Not Available,Not Available,Not Available,Not Available,Not Available,Not Available,Not Available,Not Available,Not Available,Not Available,Not Available,18.7,13.9,24.5,13.5,9.6,18.6,1,4,2,0,39,29
020012,FAIRBANKS MEMORIAL HOSPITAL,AK,99701,64.831407,-147.736254,,2.3,1.3,3.9,12.5,8.9,17.1,3.02,0.38,5.65,12,8.9,15.8,4.47,0.79,8.16,5.76,0,12.96,1.24,0,2.67,Not Available,Not Available,Not Available,17.4,13.4,22.2,15.9,11.8,20.9,6,8,0,0,35,43
020017,ALASKA REGIONAL HOSPITAL,AK,99508,61.209790000000005,-149.827379,,2.3,1.5,3.4,12.4,9.0,16.7,4.01,1.98,6.03,11.8,9.0,15.3,4.41,1.54,7.28,8.06,3.66,12.46,1.51,0.29,2.74,158.12,113.87,202.36,17.9,14.2,22.2,15.1,11.6,19.5,13,22,0,0,9,68
020018,YUKON KUSKOKWIM DELTA REG HOSPITAL,AK,99559,60.79221999999999,-161.75583,,,Not Available,Not Available,12.8,8.8,18.2,Not Available,Not Available,Not Available,Not Available,Not Available,Not Available,Not Available,Not Available,Not Available,Not Available,Not Available,Not Available,Not Available,Not Available,Not Available,Not Available,Not Available,Not Available,13.9,10.0,18.7,Not Available,Not Available,Not Available,6,0,0,0,61,23
020024,CENTRAL PENINSULA GENERAL HOSPITAL,AK,99669,60.493865,-151.077658,,2.8,1.6,4.5,11.8,8.4,16.1,4.68,1.97,7.39,Not Available,Not Available,Not Available,7.06,3.22,10.9,6.13,0,13.55,1.29,0,2.75,Not Available,Not Available,Not Available,17,13.2,21.6,16.4,12.5,21.0,11,10,0,2,31,50
020026,ALASKA NATIVE MEDICAL CENTER,AK,99508,61.18189,-149.800578,,3.2,1.9,5.4,12,8.5,16.5,3.71,1.42,6.01,13.6,10.4,17.6,5.55,1.96,9.14,6.41,0,13.07,1.23,0,2.66,182.37,140.5,224.24,16.2,12.8,20.2,14.5,10.9,19.0,19,24,2,0,76,163
021301,PROVIDENCE VALDEZ MEDICAL CENTER,AK,99686,61.13083,-146.34833,,,Not Available,Not Available,Not Available,Not Available,Not Available,Not Available,Not Available,Not Available,Not Available,Not Available,Not Available,Not Available,Not Available,Not Available,Not Available,Not Available,Not Available,Not Available,Not Available,Not Available,Not Available,Not Available,Not Available,Not Available,Not Available,Not Available,Not Available,Not Available,Not Available,0,0,0,0,4,0
021302,PROVIDENCE SEWARD HOSPITAL,AK,99664,60.105045999999994,-149.44538300000005,,,Not Available,Not Available,Not Available,Not Available,Not Available,Not Available,Not Available,Not Available,Not Available,Not Available,Not Available,Not Available,Not Available,Not Available,Not Available,Not Available,Not Available,Not Available,Not Available,Not Available,Not Available,Not Available,Not Available,Not Available,Not Available,Not Available,Not Available,Not Available,Not Available,0,0,0,0,12,4
021303,SITKA COMMUNITY HOSPITAL,AK,99835,57.058992,-135.345929,,,Not Available,Not Available,Not Available,Not Available,Not Available,Not Available,Not Available,Not Available,Not Available,Not Available,Not Available,Not Available,Not Available,Not Available,Not Available,Not Available,Not Available,Not Available,Not Available,Not Available,Not Available,Not Available,Not Available,Not Available,Not Available,Not Available,Not Available,Not Available,Not Available,0,0,0,0,14,2
021304,PETERSBURG MEDICAL CENTER,AK,99833,56.767056,-132.93195,,,Not Available,Not Available,Not Available,Not Available,Not Available,Not Available,Not Available,Not Available,Not Available,Not Available,Not Available,Not Available,Not Available,Not Available,Not Available,Not Available,Not Available,Not Available,Not Available,Not Available,Not Available,Not Available,Not Available,Not Available,Not Available,Not Available,Not Available,Not Available,Not Available,0,0,0,0,3,0
021305,WRANGELL MEDICAL CENTER,AK,99929,56.471646,-132.37641399999998,,,Not Available,Not Available,Not Available,Not Available,Not Available,Not Available,Not Available,Not Available,Not Available,Not Available,Not Available,Not Available,Not Available,Not Available,Not Available,Not Available,Not Available,Not Available,Not Available,Not Available,Not Available,Not Available,Not Available,Not Available,Not Available,Not Available,Not Available,Not Available,Not Available,0,0,0,0,2,5
021306,PROVIDENCE KODIAK ISLAND MEDICAL CTR,AK,99615,57.800835,-152.373943,93.0,,Not Available,Not Available,Not Available,Not Available,Not Available,Not Available,Not Available,Not Available,Not Available,Not Available,Not Available,Not Available,Not Available,Not Available,Not Available,Not Available,Not Available,Not Available,Not Available,Not Available,Not Available,Not Available,Not Available,16.8,11.9,23.6,Not Available,Not Available,Not Available,0,1,0,0,16,5
021307,CORDOVA COMMUNITY MEDICAL CENTER,AK,99574,60.536166,-145.75335,,,Not Available,Not Available,Not Available,Not Available,Not Available,Not Available,Not Available,Not Available,Not Available,Not Available,Not Available,Not Available,Not Available,Not Available,Not Available,Not Available,Not Available,Not Available,Not Available,Not Available,Not Available,Not Available,Not Available,Not Available,Not Available,Not Available,Not Available,Not Available,Not Available,0,0,0,0,4,0
021309,KANAKANAK HOSPITAL,AK,99576,59.040181,-158.523138,,,Not Available,Not Available,Not Available,Not Available,Not Available,Not Available,Not Available,Not Available,Not Available,Not Available,Not Available,Not Available,Not Available,Not Available,Not Available,Not Available,Not Available,Not Available,Not Available,Not Available,Not Available,Not Available,Not Available,Not Available,Not Available,Not Available,Not Available,Not Available,Not Available,0,0,0,0,42,12
021310,MANIILAQ HEALTH CENTER,AK,99752,66.865256,-161.780844,,,Not Available,Not Available,Not Available,Not Available,Not Available,Not Available,Not Available,Not Available,Not Available,Not Available,Not Available,Not Available,Not Available,Not Available,Not Available,Not Available,Not Available,Not Available,Not Available,Not Available,Not Available,Not Available,Not Available,Not Available,Not Available,Not Available,Not Available,Not Available,Not Available,0,0,0,0,15,14
021311,KETCHIKAN MEDICAL CENTER,AK,99901,55.352717000000005,-131.686049,,2.8,1.6,5.1,12.1,8.2,17.2,Not Available,Not Available,Not Available,Not Available,Not Available,Not Available,Not Available,Not Available,Not Available,Not Available,Not Available,Not Available,Not Available,Not Available,Not Available,Not Available,Not Available,Not Available,15.1,11.4,20.1,13.5,10.2,17.4,1,3,0,1,15,18
021312,SAMUEL SIMMONDS MEMORIAL HOSPITAL,AK,99723,71.298135,-156.72732,,,Not Available,Not Available,Not Available,Not Available,Not Available,Not Available,Not Available,Not Available,Not Available,Not Available,Not Available,Not Available,Not Available,Not Available,Not Available,Not Available,Not Available,Not Available,Not Available,Not Available,Not Available,Not Available,Not Available,Not Available,Not Available,Not Available,Not Available,Not Available,Not Available,0,0,0,0,2,2
021313,SOUTH PENINSULA HOSPITAL,AK,99603,59.652133,-151.550296,,,Not Available,Not Available,Not Available,Not Available,Not Available,Not Available,Not Available,Not Available,Not Available,Not Available,Not Available,Not Available,Not Available,Not Available,Not Available,Not Available,Not Available,Not Available,Not Available,Not Available,Not Available,Not Available,Not Available,13,9.2,17.7,Not Available,Not Available,Not Available,2,1,0,0,13,8
021314,MT EDGECUMBE HOSPITAL,AK,99835,57.052009999999996,-135.356353,,,Not Available,Not Available,Not Available,Not Available,Not Available,Not Available,Not Available,Not Available,Not Available,Not Available,Not Available,Not Available,Not Available,Not Available,Not Available,Not Available,Not Available,Not Available,Not Available,Not Available,Not Available,Not Available,Not Available,Not Available,Not Available,Not Available,Not Available,Not Available,Not Available,1,3,4,0,34,62
030002,BANNER - UNIVERSITY MEDICAL CENTER PHOENIX,AZ,85006,33.465724,-112.058127,,3.8,2.4,6.0,11.4,8.9,14.4,3.32,1.84,4.80,11.4,9.0,14.3,5.58,3.28,7.89,20.96,17.07,24.85,0.88,0,1.81,161.15,134.14,188.15,15.8,12.8,19.3,16.1,12.9,20.2,39,17,23,1,22,223
030006,TUCSON MEDICAL CENTER,AZ,85712,32.250749,-110.880169,95.0,2.2,1.7,3.0,13.6,11.5,16.1,1.91,0.34,3.49,14.1,11.4,17.2,3.12,0.81,5.44,3.39,0,7.1,0.68,0,1.6,161.86,121.88,201.83,15.9,13.5,18.7,14.2,11.4,17.3,19,23,1,0,23,120
030007,VERDE VALLEY MEDICAL CENTER,AZ,86326,34.736201,-112.031784,92.0,2.2,1.3,3.6,11.3,8.3,15.1,3.00,0.56,5.45,13.3,10.4,16.6,5.61,2.01,9.22,8.86,1.83,15.89,1.61,0.2,3.02,166.85,120.75,212.95,14.9,11.9,18.1,13.9,10.6,17.6,2,36,0,0,47,135
030010,ST. MARY'S HOSPITAL,AZ,85745,32.228922999999995,-111.000032,,2.3,1.3,4.2,12.9,9.3,17.1,4.32,2.05,6.58,12.6,9.8,15.9,5.60,2.19,9.01,9.33,2.69,15.96,0.99,0,2.26,143.89,101.65,186.12,18.1,14.6,21.9,17,13.4,21.1,2,15,0,0,41,92
030011,ST JOSEPH'S HOSPITAL,AZ,85711,32.225946,-110.857838,,2.6,1.8,3.9,12.9,9.9,16.4,4.20,2.19,6.20,13.2,10.5,16.6,4.78,1.78,7.78,10.98,6.37,15.59,1.02,0,2.31,166.44,122.85,210.03,17.2,14.6,20.2,16.4,13.6,19.7,4,14,0,0,29,79
030012,YAVAPAI REGIONAL MEDICAL CENTER,AZ,86301,34.55938,-112.482065,93.0,2.3,1.5,3.7,12.6,9.9,15.8,3.94,1.93,5.95,14,11.7,16.8,4.39,1.38,7.41,5.89,0.64,11.15,1.11,0,2.27,159.35,116.76,201.95,15.2,12.8,17.8,14.6,11.8,17.9,7,22,0,0,27,199
030013,YUMA REGIONAL MEDICAL CENTER,AZ,85364,32.683899,-114.633238,90.0,2.1,1.4,3.0,11.9,9.8,14.4,2.55,0.74,4.37,11.1,9.2,13.3,6.27,3.35,9.18,8.88,3.56,14.19,1.44,0.24,2.63,177.34,140.14,214.54,15,13.1,17.2,14.5,11.7,17.8,10,21,0,1,34,104
030014,JOHN C. LINCOLN NORTH MOUNTAIN HOSPITAL,AZ,85020,33.567754,-112.07063,,3.0,1.9,4.7,14,10.9,17.8,8.45,6.39,10.51,13.6,10.6,17.0,6.91,3.6,10.21,9.87,4.27,15.47,1.42,0.09,2.75,154.66,112.93,196.38,14.7,12.3,17.5,15.5,12.4,19.4,1,24,1,0,81,98
030016,BANNER CASA GRANDE MEDICAL CENTER,AZ,85122,32.879608000000005,-111.709253,,3.5,2.2,5.3,10.9,7.9,14.9,3.99,1.49,6.49,11.8,9.1,15.3,5.97,2.24,9.69,8.43,1.55,15.3,1.25,0,2.68,149.06,100.85,197.28,17.3,14.2,21.0,13.3,9.7,18.4,2,7,1,0,20,42
030022,MARICOPA MEDICAL CENTER,AZ,85008,33.458525,-112.02643,,,Not Available,Not Available,10.6,6.8,16.3,5.13,2.43,7.82,Not Available,Not Available,Not Available,5.71,1.84,9.59,9.04,1.14,16.93,1.29,0,2.76,Not Available,Not Available,Not Available,16.4,11.7,22.1,Not Available,Not Available,Not Available,25,10,16,3,50,106
030023,FLAGSTAFF MEDICAL CENTER,AZ,86001,35.209534000000005,-111.644835,94.0,2.0,1.4,3.0,11.8,9.0,15.4,3.93,2.25,5.62,12.5,9.8,15.6,3.22,0.31,6.13,8.90,4.44,13.36,1.30,0.03,2.57,163.81,122.11,205.52,12.9,10.5,15.6,12.9,10.0,16.3,1,35,4,0,22,97
030024,ST. JOSEPH'S HOSPITAL AND MEDICAL CENTER,AZ,85013,33.480294,-112.079208,,2.9,1.6,5.1,11.7,8.5,15.8,6.90,5.41,8.40,12.3,9.4,15.9,6.04,3.74,8.35,9.61,6.54,12.68,1.79,0.73,2.84,127.61,96.29,158.92,18.3,14.9,22.1,13.8,11.1,17.0,15,14,11,0,22,251
030030,ABRAZO CENTRAL CAMPUS,AZ,85015,33.524116,-112.101934,,2.5,1.3,4.4,9.8,7.1,13.6,3.46,0.84,6.09,13.9,10.5,18.0,Not Available,Not Available,Not Available,Not Available,Not Available,Not Available,Not Available,Not Available,Not Available,145.17,102.64,187.7,14.7,11.3,19.0,16,12.2,20.7,0,12,0,0,9,28
030036,CHANDLER REGIONAL MEDICAL CENTER,AZ,85224,33.298691,-111.873508,,2.6,1.6,4.1,10.8,8.5,13.7,4.52,2.79,6.24,13.5,10.8,16.5,5.46,2.91,8.01,14.45,10.44,18.46,2.25,1.2,3.31,159.07,125.31,192.84,17.4,15.1,20.1,13.3,10.6,16.4,1,18,1,1,21,139
030037,ST LUKE'S MEDICAL CENTER,AZ,85006,33.451436,-112.042767,,1.9,1.3,2.8,12.7,8.8,17.6,3.15,0.93,5.38,15.5,11.8,20.0,6.33,3.03,9.63,8.75,3.14,14.36,1.06,0,2.39,165.41,119.5,211.33,15.8,11.4,20.9,Not Available,Not Available,Not Available,0,18,0,1,1,25
030038,SCOTTSDALE OSBORN MEDICAL CENTER,AZ,85251,33.487639,-111.922725,,2.4,1.6,3.6,9.4,7.3,12.0,5.34,3.42,7.25,13.9,11.2,17.1,3.90,0.7,7.1,5.27,0,10.72,1.04,0,2.35,161.59,117.99,205.19,15.5,13.1,18.0,16,13.3,19.3,1,38,2,0,62,112
030043,CANYON VISTA MEDICAL CENTER,AZ,85635,31.554634999999998,-110.230726,,3.3,2.1,5.5,13.7,10.5,17.5,3.71,1.16,6.26,14.4,11.5,17.8,5.48,1.69,9.28,9.42,2.17,16.67,1.27,0,2.72,Not Available,Not Available,Not Available,15.9,12.7,19.7,16.2,12.1,21.2,4,6,1,0,13,33
030055,KINGMAN REGIONAL MEDICAL CENTER,AZ,86409,35.219907,-114.035813,,2.6,1.5,4.4,11.7,9.3,14.6,4.62,2.36,6.87,15.6,12.6,19.3,5.56,2.16,8.96,7.35,0.94,13.75,1.06,0,2.39,166.18,122.69,209.67,16.8,14.3,19.6,13.8,10.6,17.7,5,11,3,0,30,107
030061,BANNER BOSWELL MEDICAL CENTER,AZ,85351,33.604797999999995,-112.282538,,1.8,1.3,2.6,10.3,8.4,12.3,4.99,3.21,6.76,11.4,9.3,14.1,4.43,1.78,7.07,9.81,5.33,14.29,0.69,0,1.76,146.36,108.51,184.22,15.8,13.9,17.8,12.7,10.1,15.6,9,19,0,1,45,135
030062,SUMMIT HEALTHCARE REGIONAL MEDICAL CENTER,AZ,85901,34.201966999999996,-110.01839,93.0,2.1,1.3,3.4,10.6,7.5,14.7,3.68,1.14,6.22,13.8,10.4,17.8,5.07,1.42,8.73,6.30,0,12.89,1.21,0,2.62,146.91,97.01,196.81,14.6,11.2,18.6,14.5,10.8,19.6,4,5,1,0,54,89
030064,BANNER - UNIVERSITY MEDICAL CENTER TUCSON CAMPUS,AZ,85724,32.240663,-110.944717,,2.3,1.4,3.8,9.4,7.2,12.3,5.70,3.95,7.45,12.2,9.5,15.2,5.99,3.39,8.59,7.29,2.92,11.67,1.29,0.16,2.42,179.27,145.35,213.2,14.3,11.7,17.1,14.3,11.0,18.4,18,28,5,0,21,166
030065,BANNER DESERT MEDICAL CENTER,AZ,85202,33.39091,-111.874624,,2.9,1.8,4.5,10.1,7.8,12.8,3.90,2.14,5.67,12.9,10.3,15.9,4.54,1.87,7.22,16.86,12.6,21.12,0.86,0,2.06,148.56,113.44,183.68,14.7,12.5,17.3,14.5,11.6,17.9,9,23,1,0,2,116
030068,MT. GRAHAM REGIONAL MEDICAL CENTER,AZ,85546,32.821883,-109.732994,,2.6,1.5,4.6,Not Available,Not Available,Not Available,3.55,0.69,6.40,Not Available,Not Available,Not Available,5.10,1.16,9.03,7.43,0,15.6,1.31,0,2.78,Not Available,Not Available,Not Available,18.9,14.2,24.5,Not Available,Not Available,Not Available,0,1,0,0,15,16
030069,HAVASU REGIONAL MEDICAL CENTER,AZ,86403,34.47998,-114.33853700000002,,2.5,1.7,3.6,12.5,10.1,15.4,3.24,1.19,5.28,13.1,10.5,16.1,5.97,2.46,9.49,8.02,1.34,14.7,1.12,0,2.47,173.20,129.35,217.04,15.4,12.9,18.2,16.2,12.7,20.6,3,11,0,0,18,56
030071,FORT DEFIANCE INDIAN HOSPITAL,AZ,86504,35.74682,-109.0685,,,Not Available,Not Available,10.8,7.3,16.2,3.81,0.85,6.77,Not Available,Not Available,Not Available,Not Available,Not Available,Not Available,Not Available,Not Available,Not Available,Not Available,Not Available,Not Available,Not Available,Not Available,Not Available,14.9,11.1,20.0,Not Available,Not Available,Not Available,8,2,0,0,10,18
030073,TUBA CITY REGIONAL HEALTH CARE CORPORATION,AZ,86045,36.132723,-111.241773,,3.6,2.2,6.0,10.9,7.4,15.3,3.36,0.58,6.14,Not Available,Not Available,Not Available,4.85,1.01,8.69,5.29,0,12.19,1.26,0,2.71,Not Available,Not Available,Not Available,14.2,10.7,18.7,Not Available,Not Available,Not Available,6,6,3,0,19,32
030074,SELLS HOSPITAL,AZ,85634,32.174931,-112.15740600000001,,,Not Available,Not Available,Not Available,Not Available,Not Available,Not Available,Not Available,Not Available,Not Available,Not Available,Not Available,Not Available,Not Available,Not Available,Not Available,Not Available,Not Available,Not Available,Not Available,Not Available,Not Available,Not Available,Not Available,Not Available,Not Available,Not Available,Not Available,Not Available,Not Available,0,0,0,0,31,10
030077,SAN CARLOS APACHE HEALTHCARE,AZ,85542,33.30155,-110.45537,,,Not Available,Not Available,Not Available,Not Available,Not Available,Not Available,Not Available,Not Available,Not Available,Not Available,Not Available,Not Available,Not Available,Not Available,Not Available,Not Available,Not Available,Not Available,Not Available,Not Available,Not Available,Not Available,Not Available,Not Available,Not Available,Not Available,Not Available,Not Available,Not Available,3,4,0,0,6,17
030078,PHOENIX INDIAN MEDICAL CENTER,AZ,85016,33.497009999999996,-112.04761299999998,,,Not Available,Not Available,Not Available,Not Available,Not Available,3.75,0.81,6.69,Not Available,Not Available,Not Available,Not Available,Not Available,Not Available,Not Available,Not Available,Not Available,Not Available,Not Available,Not Available,Not Available,Not Available,Not Available,Not Available,Not Available,Not Available,Not Available,Not Available,Not Available,5,1,0,0,21,40
030083,ABRAZO SCOTTSDALE CAMPUS,AZ,85032,33.640603000000006,-111.997692,,,Not Available,Not Available,11.8,8.5,16.1,4.20,1.49,6.92,12.2,9.2,15.9,Not Available,Not Available,Not Available,Not Available,Not Available,Not Available,Not Available,Not Available,Not Available,Not Available,Not Available,Not Available,18.2,14.4,22.8,13.2,9.3,18.3,0,22,0,0,1,24
030084,CHINLE COMPREHENSIVE HEALTH CARE FACILITY,AZ,86503,34.504275,-109.36105500000001,,,Not Available,Not Available,Not Available,Not Available,Not Available,3.82,0.85,6.78,Not Available,Not Available,Not Available,Not Available,Not Available,Not Available,Not Available,Not Available,Not Available,Not Available,Not Available,Not Available,Not Available,Not Available,Not Available,15.4,11.6,20.3,Not Available,Not Available,Not Available,12,2,4,0,34,53
030085,NORTHWEST MEDICAL CENTER,AZ,85741,32.319581,-111.012054,,2.4,1.7,3.4,15.9,12.7,19.6,3.32,1.47,5.16,16,12.9,19.8,2.50,0,5.26,7.41,3.18,11.63,1.41,0.22,2.59,190.50,145.64,235.36,18.7,15.8,22.1,16.1,12.8,19.9,30,21,4,0,91,179
030087,SCOTTSDALE SHEA MEDICAL CENTER,AZ,85260,33.582467,-111.886032,,2.8,2.0,3.9,10.8,9.0,13.0,4.11,2.50,5.71,13,10.5,15.9,4.28,1.95,6.6,6.24,2.52,9.97,0.83,0,1.85,153.68,113.98,193.38,14.6,12.8,16.6,12.6,9.6,16.4,14,48,1,0,175,320
030088,BANNER BAYWOOD MEDICAL CENTER,AZ,85206,33.410465,-111.688045,,3.3,2.3,4.7,10.6,8.5,13.1,3.88,2.12,5.64,13.3,10.2,17.2,5.43,2.4,8.47,12.48,7.58,17.38,0.98,0,2.26,156.64,117.3,195.97,15.8,13.9,17.9,11.4,9.4,13.6,3,29,6,0,66,118
030089,BANNER THUNDERBIRD MEDICAL CENTER,AZ,85306,33.610731,-112.178698,,2.9,1.7,4.9,11.7,9.1,14.8,5.79,3.84,7.75,12.1,9.6,15.0,7.38,4.21,10.55,18.20,12.63,23.77,0.92,0,2.16,132.77,98.96,166.58,15.7,13.6,18.2,11.9,8.8,15.7,13,8,4,0,13,189
030092,HONORHEALTH DEER VALLEY MEDICAL CENTER,AZ,85027,33.666425,-112.11718799999998,,3.1,2.0,4.7,9.9,7.3,13.6,5.29,3.17,7.41,12.9,9.9,16.5,7.21,3.97,10.46,7.31,1.44,13.18,1.97,0.69,3.24,139.32,96.68,181.96,17.3,14.6,20.5,13.4,10.2,17.2,10,21,0,0,31,109
030093,BANNER DEL E. WEBB MEDICAL CENTER,AZ,85375,33.658307,-112.37193899999998,,2.0,1.4,3.0,10.7,8.7,13.0,4.27,2.37,6.17,11.9,9.6,14.6,4.82,1.47,8.16,9.41,4.19,14.62,1.18,0,2.57,142.51,99.46,185.55,16.4,14.4,18.6,12.7,10.5,15.2,14,33,5,0,31,141
030094,ABRAZO ARROWHEAD CAMPUS,AZ,85308,33.655042,-112.20288899999998,,2.3,1.5,3.5,11,8.2,14.2,2.75,0.94,4.55,13.4,10.7,16.9,4.77,0.97,8.58,8.93,1.07,16.8,1.59,0.19,2.99,128.59,89.09,168.09,17.4,14.2,21.0,15.5,11.7,20.1,1,24,0,0,9,153
030101,WESTERN ARIZONA REGIONAL MEDICAL CENTER,AZ,86442,35.109853,-114.555146,,2.1,1.3,3.4,13,10.4,16.0,4.04,1.53,6.56,12.8,10.2,16.0,5.80,2.35,9.26,15.89,9.47,22.3,1.19,0,2.59,149.80,103.07,196.53,15.1,12.0,18.5,13,9.5,17.5,9,5,0,0,29,45
030103,MAYO CLINIC HOSPITAL,AZ,85054,33.663312,-111.955659,,2.1,1.6,3.0,8.7,7.0,10.5,3.95,2.61,5.29,10.7,8.5,13.4,5.22,3.47,6.96,2.00,0,4.66,1.41,0.57,2.25,99.36,69.43,129.3,10.4,8.8,12.0,15.7,12.9,18.8,22,27,1,0,47,646
030105,BANNER HEART HOSPITAL,AZ,85206,33.410378,-111.685273,,,Not Available,Not Available,9.6,7.6,12.1,3.43,1.22,5.63,12,10.0,14.3,5.97,3.14,8.81,16.04,9.28,22.8,0.56,0,1.52,168.88,128.81,208.95,19.5,14.8,25.7,Not Available,Not Available,Not Available,0,0,3,0,1,49
030107,ARIZONA SPINE AND JOINT HOSPITAL,AZ,85206,33.379205999999996,-111.734695,95.0,2.2,1.5,3.2,Not Available,Not Available,Not Available,3.30,0.74,5.86,Not Available,Not Available,Not Available,4.48,0.79,8.16,4.57,0,10.98,1.27,0,2.72,Not Available,Not Available,Not Available,Not Available,Not Available,Not Available,Not Available,Not Available,Not Available,0,28,0,0,1,64
030108,"CORE INSTITUTE SPECIALTY HOSPITAL, THE",AZ,85015,33.531837,-112.099614,89.0,2.4,1.5,3.7,Not Available,Not Available,Not Available,2.85,0.29,5.41,Not Available,Not Available,Not Available,4.44,0.77,8.11,4.32,0,10.55,1.27,0,2.72,Not Available,Not Available,Not Available,Not Available,Not Available,Not Available,Not Available,Not Available,Not Available,0,43,0,0,2,51
030110,ABRAZO WEST CAMPUS,AZ,85395,33.464283,-112.354024,,,Not Available,Not Available,12.5,9.2,17.2,3.88,1.41,6.35,14.9,11.5,18.8,Not Available,Not Available,Not Available,Not Available,Not Available,Not Available,Not Available,Not Available,Not Available,157.09,112.21,201.96,16.4,13.1,20.3,15.2,11.7,19.8,3,8,3,0,6,50
030111,BANNER-UNIVERSITY MEDICAL CENTER SOUTH CAMPUS,AZ,85713,32.177882000000004,-110.930891,,,Not Available,Not Available,11.3,7.9,15.6,4.86,2.10,7.62,12.5,9.5,16.3,4.94,1.07,8.81,9.04,1.14,16.94,1.30,0,2.76,Not Available,Not Available,Not Available,13.7,10.3,18.0,14.1,9.9,19.5,8,28,0,0,83,67
030112,ARIZONA SPECIALTY HOSPITAL,AZ,85224,33.33484,-111.891133,95.0,3.2,2.1,4.6,Not Available,Not Available,Not Available,3.08,0.42,5.75,Not Available,Not Available,Not Available,4.70,0.92,8.47,5.49,0,12.51,1.29,0,2.75,Not Available,Not Available,Not Available,Not Available,Not Available,Not Available,Not Available,Not Available,Not Available,0,21,0,0,0,31
030113,WHITERIVER PHS INDIAN HOSPITAL,AZ,85941,33.875976,-109.959528,,,Not Available,Not Available,Not Available,Not Available,Not Available,Not Available,Not Available,Not Available,Not Available,Not Available,Not Available,Not Available,Not Available,Not Available,Not Available,Not Available,Not Available,Not Available,Not Available,Not Available,Not Available,Not Available,Not Available,13.6,9.6,18.9,Not Available,Not Available,Not Available,0,1,6,0,28,11
030114,ORO VALLEY HOSPITAL,AZ,85755,32.427183,-110.94953999999998,,2.6,1.8,3.7,11.8,9.1,15.0,3.02,0.72,5.32,12.2,9.4,15.4,4.30,0.68,7.91,10.23,3.76,16.7,1.26,0,2.7,Not Available,Not Available,Not Available,13.9,11.3,17.1,13.7,10.3,17.7,13,28,4,0,76,109
030115,BANNER ESTRELLA MEDICAL CENTER,AZ,85037,33.479558000000004,-112.25793600000002,,2.9,1.7,4.8,8.9,6.5,12.2,3.26,0.87,5.65,13.9,10.7,17.8,4.31,0.69,7.92,7.74,1.15,14.32,1.21,0,2.62,147.76,101.12,194.39,15,12.2,18.2,13.3,9.9,18.2,2,7,4,0,4,101
030117,VALLEY VIEW MEDICAL CENTER,AZ,86426,35.002363,-114.597954,,2.3,1.4,3.8,10.8,7.8,14.8,3.86,1.09,6.63,13.4,9.9,17.6,4.96,1.08,8.84,6.80,0,14.62,1.30,0,2.77,Not Available,Not Available,Not Available,14.3,10.7,19.0,13.8,9.7,18.9,5,15,0,0,16,42
030119,MERCY GILBERT MEDICAL CENTER,AZ,85297,33.286660999999995,-111.755311,,2.8,1.8,4.4,10.9,8.2,14.2,3.85,1.71,5.99,12,9.2,15.5,6.06,2.84,9.28,11.36,6.35,16.38,1.10,0,2.44,160.71,117.98,203.45,13.7,11.4,16.5,15,11.5,19.0,0,29,0,0,13,110
030121,"MOUNTAIN VISTA MEDICAL CENTER, LP",AZ,85209,33.3911,-111.615329,,2.5,1.6,4.0,9.4,6.7,13.1,3.39,1.20,5.58,16.4,13.2,20.6,4.75,1.43,8.07,7.82,1.74,13.89,1.72,0.41,3.02,151.34,109.82,192.86,18.2,14.9,22.1,16,12.5,20.5,2,12,0,0,13,28
030122,BANNER GATEWAY MEDICAL CENTER,AZ,85234,33.384225,-111.719634,,3.1,1.7,5.4,13.1,9.8,17.5,4.56,2.13,6.99,12.6,9.4,16.7,6.20,2.8,9.6,7.27,0.9,13.64,1.20,0,2.61,159.66,112.09,207.23,15.4,12.9,18.2,13.2,9.8,17.7,6,18,5,0,28,170
030123,SCOTTSDALE THOMPSON PEAK MEDICAL CENTER,AZ,85255,33.669777,-111.921803,,2.2,1.6,3.0,11.2,8.7,14.3,3.59,1.60,5.58,12.7,10.1,16.0,4.81,1.65,7.97,3.08,0,7.69,1.13,0,2.49,170.97,123.99,217.94,13.9,11.3,17.1,14.1,9.9,19.1,4,33,1,0,31,137
030130,BANNER IRONWOOD MEDICAL CENTER,AZ,85140,33.214839000000005,-111.563447,,4.4,2.6,7.4,12.1,8.3,17.1,3.89,1.11,6.67,Not Available,Not Available,Not Available,5.10,1.16,9.03,11.49,3.47,19.51,1.30,0,2.77,Not Available,Not Available,Not Available,13.1,9.7,17.5,Not Available,Not Available,Not Available,0,4,2,0,8,33
030131,O.A.S.I.S. HOSPITAL,AZ,85008,33.456720000000004,-111.99521,95.0,3.2,2.6,4.0,Not Available,Not Available,Not Available,1.69,0.00,3.66,Not Available,Not Available,Not Available,3.40,0.18,6.61,3.76,0,8.36,1.18,0,2.58,Not Available,Not Available,Not Available,Not Available,Not Available,Not Available,Not Available,Not Available,Not Available,0,49,0,0,2,75
030134,BANNER GOLDFIELD MEDICAL CENTER,AZ,85120,33.393343,-111.566796,,,Not Available,Not Available,11.5,7.6,16.8,3.77,0.82,6.72,Not Available,Not Available,Not Available,Not Available,Not Available,Not Available,Not Available,Not Available,Not Available,Not Available,Not Available,Not Available,Not Available,Not Available,Not Available,12.3,8.7,16.8,Not Available,Not Available,Not Available,0,0,0,0,0,3
030136,DIGNITY HEALTH - ARIZONA GENERAL HOSPITAL,AZ,85339,33.380677,-112.168233,,,Not Available,Not Available,Not Available,Not Available,Not Available,Not Available,Not Available,Not Available,Not Available,Not Available,Not Available,Not Available,Not Available,Not Available,Not Available,Not Available,Not Available,Not Available,Not Available,Not Available,Not Available,Not Available,Not Available,Not Available,Not Available,Not Available,Not Available,Not Available,Not Available,0,0,0,0,6,2
030137,SANTA CRUZ VALLEY REGIONAL HOSPITAL,AZ,85614,31.807942999999998,-111.010966,,,Not Available,Not Available,10.3,7.1,14.5,4.04,1.20,6.88,Not Available,Not Available,Not Available,5.15,1.2,9.11,7.68,0,15.99,1.31,0,2.78,Not Available,Not Available,Not Available,14.4,11.0,18.6,Not Available,Not Available,Not Available,0,8,0,0,9,6
030138,WESTERN REGIONAL MEDICAL CENTER,AZ,85338,33.452804,-112.362571,,,Not Available,Not Available,Not Available,Not Available,Not Available,Not Available,Not Available,Not Available,Not Available,Not Available,Not Available,Not Available,Not Available,Not Available,Not Available,Not Available,Not Available,Not Available,Not Available,Not Available,Not Available,Not Available,Not Available,Not Available,Not Available,Not Available,Not Available,Not Available,Not Available,0,0,0,0,1,24
031300,WICKENBURG COMMUNITY HOSPITAL,AZ,85390,33.978056,-112.738825,,,Not Available,Not Available,Not Available,Not Available,Not Available,Not Available,Not Available,Not Available,Not Available,Not Available,Not Available,Not Available,Not Available,Not Available,Not Available,Not Available,Not Available,Not Available,Not Available,Not Available,Not Available,Not Available,Not Available,16.3,11.9,21.8,Not Available,Not Available,Not Available,0,0,0,0,7,10
031301,BENSON HOSPITAL,AZ,85602,31.964828999999998,-110.307123,,,Not Available,Not Available,Not Available,Not Available,Not Available,Not Available,Not Available,Not Available,Not Available,Not Available,Not Available,Not Available,Not Available,Not Available,Not Available,Not Available,Not Available,Not Available,Not Available,Not Available,Not Available,Not Available,Not Available,14.7,10.4,20.5,Not Available,Not Available,Not Available,0,4,2,0,8,3
031302,"NORTHERN COCHISE COMMUNITY HOSPITAL, INC.",AZ,85643,32.264268,-109.837613,,,Not Available,Not Available,Not Available,Not Available,Not Available,Not Available,Not Available,Not Available,Not Available,Not Available,Not Available,Not Available,Not Available,Not Available,Not Available,Not Available,Not Available,Not Available,Not Available,Not Available,Not Available,Not Available,Not Available,14.5,10.9,18.9,Not Available,Not Available,Not Available,0,0,0,0,5,8
031304,PAGE HOSPITAL,AZ,86040,36.916959999999996,-111.463186,,,Not Available,Not Available,Not Available,Not Available,Not Available,Not Available,Not Available,Not Available,Not Available,Not Available,Not Available,Not Available,Not Available,Not Available,Not Available,Not Available,Not Available,Not Available,Not Available,Not Available,Not Available,Not Available,Not Available,Not Available,Not Available,Not Available,Not Available,Not Available,Not Available,0,0,0,0,15,10
031305,HOPI HEALTH CARE CENTER,AZ,86042,35.83667,-110.38152,,,Not Available,Not Available,Not Available,Not Available,Not Available,Not Available,Not Available,Not Available,Not Available,Not Available,Not Available,Not Available,Not Available,Not Available,Not Available,Not Available,Not Available,Not Available,Not Available,Not Available,Not Available,Not Available,Not Available,13.6,9.7,18.1,Not Available,Not Available,Not Available,0,0,0,0,7,5
031307,PARKER INDIAN HEALTH CENTER,AZ,85344,34.146494,-114.301314,,,Not Available,Not Available,Not Available,Not Available,Not Available,Not Available,Not Available,Not Available,Not Available,Not Available,Not Available,Not Available,Not Available,Not Available,Not Available,Not Available,Not Available,Not Available,Not Available,Not Available,Not Available,Not Available,Not Available,Not Available,Not Available,Not Available,Not Available,Not Available,Not Available,0,0,0,0,2,0
031308,HUHU KAM MEMORIAL HOSPITAL,AZ,85147,33.074121999999996,-111.75908,,,Not Available,Not Available,Not Available,Not Available,Not Available,Not Available,Not Available,Not Available,Not Available,Not Available,Not Available,Not Available,Not Available,Not Available,Not Available,Not Available,Not Available,Not Available,Not Available,Not Available,Not Available,Not Available,Not Available,Not Available,Not Available,Not Available,Not Available,Not Available,Not Available,2,0,1,0,16,86
031309,SAGE MEMORIAL HOSPITAL,AZ,86505,35.725738,-109.585853,,,Not Available,Not Available,Not Available,Not Available,Not Available,Not Available,Not Available,Not Available,Not Available,Not Available,Not Available,Not Available,Not Available,Not Available,Not Available,Not Available,Not Available,Not Available,Not Available,Not Available,Not Available,Not Available,Not Available,12.3,8.8,16.9,Not Available,Not Available,Not Available,0,0,0,0,2,0
031311,LITTLE COLORADO MEDICAL CENTER,AZ,86047,35.035455,-110.691742,,,Not Available,Not Available,Not Available,Not Available,Not Available,Not Available,Not Available,Not Available,Not Available,Not Available,Not Available,Not Available,Not Available,Not Available,Not Available,Not Available,Not Available,Not Available,Not Available,Not Available,Not Available,Not Available,Not Available,14,10.2,18.9,Not Available,Not Available,Not Available,0,0,2,0,30,1
031312,COPPER QUEEN COMMUNITY HOSPITAL,AZ,85603,31.417253999999996,-109.8826,,,Not Available,Not Available,Not Available,Not Available,Not Available,Not Available,Not Available,Not Available,Not Available,Not Available,Not Available,Not Available,Not Available,Not Available,Not Available,Not Available,Not Available,Not Available,Not Available,Not Available,Not Available,Not Available,Not Available,15,10.9,20.0,Not Available,Not Available,Not Available,0,0,0,0,12,7
031313,HOLY CROSS HOSPITAL,AZ,85621,31.341117999999998,-110.958734,,,Not Available,Not Available,Not Available,Not Available,Not Available,Not Available,Not Available,Not Available,Not Available,Not Available,Not Available,Not Available,Not Available,Not Available,Not Available,Not Available,Not Available,Not Available,Not Available,Not Available,Not Available,Not Available,Not Available,Not Available,Not Available,Not Available,Not Available,Not Available,Not Available,0,0,0,0,4,3
031314,COBRE VALLEY REGIONAL MEDICAL CENTER,AZ,85501,33.407206,-110.826224,,2.5,1.4,4.6,9.1,6.4,13.0,Not Available,Not Available,Not Available,13.5,10.3,17.2,Not Available,Not Available,Not Available,Not Available,Not Available,Not Available,Not Available,Not Available,Not Available,Not Available,Not Available,Not Available,13.5,9.9,18.2,13.9,10.2,18.7,3,4,0,0,14,20
031315,WHITE MOUNTAIN REGIONAL MEDICAL CENTER,AZ,85938,34.132135999999996,-109.286545,,,Not Available,Not Available,Not Available,Not Available,Not Available,Not Available,Not Available,Not Available,Not Available,Not Available,Not Available,Not Available,Not Available,Not Available,Not Available,Not Available,Not Available,Not Available,Not Available,Not Available,Not Available,Not Available,Not Available,14.9,10.5,20.4,Not Available,Not Available,Not Available,0,3,0,0,6,10
031317,LA PAZ REGIONAL HOSPITAL,AZ,85344,34.135137,-114.285597,,2.5,1.4,4.5,11.7,8.2,16.7,Not Available,Not Available,Not Available,11.7,8.6,15.4,Not Available,Not Available,Not Available,Not Available,Not Available,Not Available,Not Available,Not Available,Not Available,Not Available,Not Available,Not Available,15.8,11.8,21.1,Not Available,Not Available,Not Available,2,7,0,0,3,11
031318,BANNER PAYSON MEDICAL CENTER,AZ,85541,34.231351000000004,-111.321361,,,Not Available,Not Available,Not Available,Not Available,Not Available,Not Available,Not Available,Not Available,Not Available,Not Available,Not Available,Not Available,Not Available,Not Available,Not Available,Not Available,Not Available,Not Available,Not Available,Not Available,Not Available,Not Available,Not Available,Not Available,Not Available,Not Available,Not Available,Not Available,Not Available,1,3,4,0,12,12
033302,PHOENIX CHILDREN'S HOSPITAL,AZ,85016,33.480216,-112.041193,,,Not Available,Not Available,Not Available,Not Available,Not Available,Not Available,Not Available,Not Available,Not Available,Not Available,Not Available,Not Available,Not Available,Not Available,Not Available,Not Available,Not Available,Not Available,Not Available,Not Available,Not Available,Not Available,Not Available,Not Available,Not Available,Not Available,Not Available,Not Available,Not Available,0,0,28,0,0,1
033303,"HACIENDA CHILDREN'S HOSPITAL, INC.",AZ,85210,33.381128000000004,-111.844892,,,Not Available,Not Available,Not Available,Not Available,Not Available,Not Available,Not Available,Not Available,Not Available,Not Available,Not Available,Not Available,Not Available,Not Available,Not Available,Not Available,Not Available,Not Available,Not Available,Not Available,Not Available,Not Available,Not Available,Not Available,Not Available,Not Available,Not Available,Not Available,Not Available,0,0,0,0,0,0
040001,SILOAM SPRINGS REGIONAL HOSPITAL,AR,72761,36.190377000000005,-94.509658,,2.8,1.6,5.1,14.5,10.2,20.0,3.63,0.74,6.52,Not Available,Not Available,Not Available,Not Available,Not Available,Not Available,Not Available,Not Available,Not Available,Not Available,Not Available,Not Available,Not Available,Not Available,Not Available,17.6,13.5,22.4,Not Available,Not Available,Not Available,2,2,0,0,32,14
040002,JOHNSON REGIONAL MEDICAL CENTER,AR,72830,35.464384,-93.445797,,3.5,2.0,6.0,15.7,11.4,21.2,4.55,1.72,7.38,Not Available,Not Available,Not Available,4.99,1.1,8.88,10.98,3.13,18.83,1.30,0,2.76,Not Available,Not Available,Not Available,18.1,14.0,23.0,15.6,11.6,20.5,3,4,0,0,13,12
040004,WASHINGTON REGIONAL MEDICAL CENTER,AR,72703,36.110984,-94.157862,,1.5,1.0,2.4,14.4,12.0,17.2,4.68,2.93,6.44,13.2,10.6,16.3,3.09,0.68,5.49,11.82,7.68,15.97,1.47,0.45,2.5,135.17,95.8,174.54,20.4,17.4,23.6,19.7,16.8,23.0,9,7,1,0,69,59
040007,CHI-ST VINCENT INFIRMARY,AR,72205,34.750326,-92.351206,,2.3,1.5,3.2,12.4,10.3,14.9,3.82,2.39,5.25,13.6,10.9,17.0,5.81,3.66,7.96,11.22,7.79,14.64,1.78,0.98,2.59,181.48,149.65,213.32,16.5,14.0,19.3,17.4,14.5,20.5,10,35,5,0,86,79
040010,MERCY HOSPITAL NORTHWEST ARKANSAS,AR,72758,36.309562,-94.184709,,3.2,2.1,4.8,12.8,10.1,15.9,3.51,1.47,5.55,13,10.3,16.2,5.11,2.27,7.94,4.18,0,8.61,1.90,0.74,3.05,153.91,111.39,196.43,17.1,14.6,19.7,13.5,10.6,16.8,26,31,3,1,70,194
040011,CHAMBERS MEMORIAL HOSPITAL,AR,72833,35.054823,-93.388543,,,Not Available,Not Available,13.8,10.4,18.3,Not Available,Not Available,Not Available,13.1,10.3,16.5,Not Available,Not Available,Not Available,Not Available,Not Available,Not Available,Not Available,Not Available,Not Available,Not Available,Not Available,Not Available,13,9.8,16.8,15.8,11.6,21.1,0,0,0,0,11,12
040014,WHITE COUNTY MEDICAL CENTER,AR,72143,35.250446000000004,-91.696758,92.0,1.7,1.0,2.8,11.4,9.1,13.9,2.30,0.16,4.44,13.3,10.8,16.3,Not Available,Not Available,Not Available,Not Available,Not Available,Not Available,Not Available,Not Available,Not Available,174.70,127.36,222.04,16.9,14.9,19.1,15.6,12.5,19.4,7,4,3,0,59,60
040015,MENA REGIONAL HEALTH SYSTEM,AR,71953,34.588386,-94.221383,93.0,,Not Available,Not Available,16.7,12.0,22.9,3.73,0.80,6.66,Not Available,Not Available,Not Available,Not Available,Not Available,Not Available,Not Available,Not Available,Not Available,Not Available,Not Available,Not Available,Not Available,Not Available,Not Available,20.5,15.7,26.0,15.6,11.3,21.6,2,2,0,0,25,2
040016,UAMS MEDICAL CENTER,AR,72205,34.751583000000004,-92.320998,91.0,2.0,1.3,3.3,11.3,8.4,15.1,3.41,1.88,4.95,12.9,9.9,16.7,9.76,7.62,11.91,14.03,10.78,17.27,2.09,1.01,3.16,164.46,132.45,196.46,16,13.6,18.7,16.7,14.1,19.7,26,40,11,0,27,137
040017,NORTH ARKANSAS REGIONAL MEDICAL CENTER,AR,72601,36.236281,-93.107148,,2.0,1.2,3.4,14.7,10.6,19.4,4.00,1.35,6.65,Not Available,Not Available,Not Available,5.22,1.52,8.93,10.36,3.37,17.34,1.26,0,2.69,Not Available,Not Available,Not Available,18.1,15.3,21.2,14.2,10.9,18.4,5,3,1,0,30,38
040018,SPARKS MEDICAL CENTER - VAN BUREN,AR,72956,35.436537,-94.338093,,,Not Available,Not Available,Not Available,Not Available,Not Available,3.80,0.84,6.76,Not Available,Not Available,Not Available,5.20,1.22,9.17,7.54,0,15.78,1.31,0,2.78,Not Available,Not Available,Not Available,17,12.7,22.7,Not Available,Not Available,Not Available,0,1,0,0,11,17
040019,FORREST CITY MEDICAL CENTER,AR,72335,35.039275,-90.771894,,,Not Available,Not Available,13.4,9.2,18.7,3.77,0.82,6.72,Not Available,Not Available,Not Available,Not Available,Not Available,Not Available,Not Available,Not Available,Not Available,1.30,0,2.77,Not Available,Not Available,Not Available,19.4,15.3,24.3,Not Available,Not Available,Not Available,3,0,0,0,17,7
040020,ST BERNARDS MEDICAL CENTER,AR,72401,35.837478000000004,-90.702142,,2.6,1.7,4.0,17.2,14.3,20.5,2.81,0.98,4.63,16.2,13.5,19.5,4.65,1.83,7.47,6.39,1.29,11.49,1.59,0.44,2.73,169.80,132.26,207.34,18.4,16.0,21.0,17.1,14.1,20.9,20,10,8,0,120,145
040022,NORTHWEST MEDICAL CENTER-SPRINGDALE,AR,72764,36.181394,-94.136464,,3.0,1.8,4.8,16.9,13.9,20.4,2.88,0.75,5.00,14.9,12.3,17.8,3.00,0.19,5.8,5.70,0.9,10.51,1.33,0.18,2.48,157.35,112.36,202.35,16.4,13.7,19.6,15.3,12.0,19.1,12,17,1,0,107,81
040026,CHI ST. VINCENT HOSPITAL HOT SPRINGS,AR,71903,34.466035,-93.066396,,2.2,1.5,3.2,12,9.9,14.3,3.58,1.73,5.43,15.9,12.8,19.6,4.37,1.36,7.38,3.83,0,8.46,1.05,0,2.36,125.18,86.78,163.58,15.2,13.3,17.5,13.3,10.6,16.5,5,7,3,0,47,112
040027,BAXTER REGIONAL MEDICAL CENTER,AR,72653,36.343067,-92.395905,,3.3,2.3,4.7,13.3,10.7,16.3,3.31,1.24,5.38,16,13.1,19.6,5.36,2.57,8.15,6.79,2.17,11.42,1.26,0.14,2.37,178.05,134.87,221.23,18.8,16.4,21.6,15.5,12.3,19.5,3,5,1,0,39,60
040029,CONWAY REGIONAL MEDICAL CENTER,AR,72034,35.084826,-92.457103,,3.5,2.2,5.3,10.8,8.0,14.7,4.50,2.19,6.82,11.9,9.3,15.1,5.49,2.11,8.87,5.97,0.2,11.74,1.50,0.14,2.87,176.58,128.53,224.63,21,18.5,23.6,12.9,10.0,16.7,13,12,4,0,73,61
040036,BAPTIST HEALTH MEDICAL CENTER NORTH LITTLE ROCK,AR,72117,34.784075,-92.218633,,2.9,1.8,4.5,14,11.5,16.9,3.47,1.51,5.42,14.5,11.8,17.8,4.77,1.92,7.63,8.56,4.06,13.06,0.83,0,1.99,189.19,149.25,229.13,18.3,16.1,20.8,15.9,12.6,19.7,11,27,3,0,64,31
040039,ARKANSAS METHODIST MEDICAL CENTER,AR,72450,36.052593,-90.499051,,2.3,1.3,4.1,15.5,12.2,19.6,3.18,0.48,5.89,17.1,13.7,21.2,Not Available,Not Available,Not Available,Not Available,Not Available,Not Available,Not Available,Not Available,Not Available,Not Available,Not Available,Not Available,15.6,12.8,18.9,14.4,10.7,18.8,5,7,0,0,32,52
040041,ST MARYS REGIONAL MEDICAL CENTER,AR,72801,35.28286,-93.149908,,2.5,1.4,4.2,11.9,9.2,15.0,3.14,0.64,5.64,16.3,13.0,19.9,5.68,2.06,9.3,8.31,1.54,15.08,1.24,0,2.67,156.62,110.86,202.37,17.8,14.8,21.4,15.3,11.7,19.6,10,3,1,0,37,14
040047,FIVE RIVERS MEDICAL CENTER,AR,72455,36.289911,-90.996334,,,Not Available,Not Available,12.1,8.2,17.6,3.80,0.84,6.76,Not Available,Not Available,Not Available,Not Available,Not Available,Not Available,Not Available,Not Available,Not Available,Not Available,Not Available,Not Available,Not Available,Not Available,Not Available,18.1,13.8,23.3,Not Available,Not Available,Not Available,0,1,0,0,17,9
040050,OUACHITA COUNTY MEDICAL CENTER,AR,71701,33.575972,-92.83613299999999,,2.8,1.6,5.0,11.6,8.0,16.6,3.56,0.70,6.42,Not Available,Not Available,Not Available,5.09,1.16,9.03,7.17,0,15.21,1.31,0,2.78,Not Available,Not Available,Not Available,19.4,15.1,24.2,14.7,10.7,19.7,1,5,0,0,19,10
040051,DREW MEMORIAL HOSPITAL,AR,71655,33.610628000000005,-91.814978,,,Not Available,Not Available,10,7.2,13.5,3.69,0.77,6.60,Not Available,Not Available,Not Available,Not Available,Not Available,Not Available,Not Available,Not Available,Not Available,Not Available,Not Available,Not Available,Not Available,Not Available,Not Available,13.6,11.2,16.6,14.4,10.5,19.2,1,2,0,0,17,9
040055,SPARKS REGIONAL MEDICAL CENTER,AR,72902,35.374527,-94.421311,,2.7,1.7,4.2,15.1,12.9,17.6,3.46,1.58,5.34,13.8,11.6,16.2,3.92,1.07,6.77,9.99,5.31,14.67,0.81,0,1.97,136.56,97.41,175.71,18.1,15.8,20.7,15.5,12.6,18.7,14,10,2,0,108,86
040062,MERCY HOSPITAL FORT SMITH,AR,72917,35.353646999999995,-94.352964,,2.4,1.7,3.5,12.8,10.7,15.4,3.09,1.25,4.93,14.9,12.3,18.0,4.58,1.65,7.51,7.09,2.36,11.82,0.87,0,2.07,125.95,84.83,167.07,16.1,13.5,18.9,15.4,12.5,18.8,17,17,2,0,80,113
040067,MAGNOLIA HOSPITAL,AR,71754,33.275123,-93.240071,,,Not Available,Not Available,15.6,11.4,20.7,3.63,0.74,6.52,Not Available,Not Available,Not Available,5.06,1.14,8.98,7.03,0,14.99,1.30,0,2.77,Not Available,Not Available,Not Available,20.9,17.0,25.6,15.9,11.6,21.4,1,2,0,0,21,5
040069,GREAT RIVER MEDICAL CENTER,AR,72315,35.943011,-89.918929,,,Not Available,Not Available,13.3,9.8,18.3,3.78,0.83,6.73,Not Available,Not Available,Not Available,Not Available,Not Available,Not Available,6.98,0,14.9,1.30,0,2.76,Not Available,Not Available,Not Available,16.9,13.2,21.3,Not Available,Not Available,Not Available,6,2,0,0,11,13
040071,JEFFERSON REGIONAL MEDICAL CENTER,AR,71603,34.189066,-92.018453,,2.2,1.3,3.7,12.2,9.5,15.9,4.47,2.16,6.77,15.3,12.4,19.0,8.03,4.61,11.46,19.80,13.8,25.79,1.54,0.16,2.92,178.19,135.32,221.07,19,16.1,22.2,13.9,11.3,17.0,4,8,0,0,50,22
040072,BAPTIST HEALTH MEDICAL CENTER-STUTTGART,AR,72160,34.517773,-91.557572,,,Not Available,Not Available,12.1,8.9,16.5,3.83,0.86,6.79,Not Available,Not Available,Not Available,Not Available,Not Available,Not Available,Not Available,Not Available,Not Available,Not Available,Not Available,Not Available,Not Available,Not Available,Not Available,17.2,13.5,21.8,15.1,10.9,20.0,1,2,2,0,18,3
040074,NORTH METRO MEDICAL CENTER,AR,72076,34.872381,-92.124697,,,Not Available,Not Available,12.3,8.4,17.6,4.91,1.98,7.85,Not Available,Not Available,Not Available,Not Available,Not Available,Not Available,Not Available,Not Available,Not Available,Not Available,Not Available,Not Available,Not Available,Not Available,Not Available,15.8,12.0,20.4,Not Available,Not Available,Not Available,1,0,2,0,17,0
040076,BAPTIST HEALTH MEDICAL CENTER-HOT SPRINGS COUNTY,AR,72104,34.358913,-92.786418,,,Not Available,Not Available,11.6,8.2,16.0,4.41,1.44,7.37,Not Available,Not Available,Not Available,Not Available,Not Available,Not Available,Not Available,Not Available,Not Available,Not Available,Not Available,Not Available,Not Available,Not Available,Not Available,15.5,12.2,19.3,13.4,9.8,17.8,0,1,0,0,15,3
040078,NATIONAL PARK MEDICAL CENTER,AR,71901,34.486239000000005,-93.033554,,3.0,1.8,4.8,13.2,10.2,16.9,3.98,1.61,6.36,15,11.8,19.1,6.21,3.09,9.33,14.47,9,19.95,1.02,0,2.31,179.24,135.83,222.64,20.2,17.3,23.4,13.3,10.2,17.1,3,3,0,0,50,29
040084,SALINE MEMORIAL HOSPITAL,AR,72015,34.573552,-92.584405,,2.1,1.2,3.6,15.8,12.7,19.5,2.62,0.16,5.07,13.8,10.7,17.8,4.50,0.8,8.2,6.64,0,13.41,1.24,0,2.67,Not Available,Not Available,Not Available,16.1,13.2,19.3,16.8,12.9,21.1,7,4,4,0,33,30
040085,HELENA REGIONAL MEDICAL CENTER,AR,72342,34.508357000000004,-90.62733,,,Not Available,Not Available,13.1,9.5,18.0,3.78,0.83,6.73,Not Available,Not Available,Not Available,Not Available,Not Available,Not Available,11.25,3.33,19.18,1.30,0,2.76,Not Available,Not Available,Not Available,17.6,13.3,23.0,Not Available,Not Available,Not Available,2,2,4,0,18,7
040088,MEDICAL CENTER OF SOUTH ARKANSAS,AR,71730,33.218378,-92.67103,,3.2,1.8,5.5,14.2,10.9,18.3,3.58,1.07,6.08,13.8,10.8,17.9,5.46,2.11,8.81,13.83,7.59,20.08,1.44,0.11,2.77,180.04,134.01,226.06,18.7,15.4,22.5,17.4,13.3,22.3,3,3,0,0,28,19
040114,BAPTIST HEALTH MEDICAL CENTER-LITTLE ROCK,AR,72205,34.75356,-92.4007,,3.1,2.1,4.4,12.9,10.9,15.2,3.68,2.25,5.12,15.6,13.0,18.6,3.37,1.48,5.26,12.67,9.68,15.67,1.19,0.43,1.95,211.77,179.72,243.83,18.6,16.7,20.7,16.2,13.8,18.8,34,37,7,0,91,63
040118,NEA BAPTIST MEMORIAL HOSPITAL,AR,72401,35.864204,-90.639107,96.0,3.8,2.7,5.2,13.7,11.3,16.3,4.62,2.52,6.73,12.5,9.9,15.6,4.93,1.73,8.13,7.52,1.98,13.06,1.66,0.38,2.94,153.65,106.83,200.46,14.3,12.3,16.5,15.7,12.6,19.1,11,7,13,0,43,41
040119,WHITE RIVER MEDICAL CENTER,AR,72503,35.769572,-91.634721,,1.8,1.1,3.0,14.5,12.1,17.5,2.60,0.46,4.73,14.9,12.0,18.2,7.03,3.57,10.48,6.61,0.56,12.66,1.57,0.17,2.97,160.92,117.94,203.89,15.5,13.3,18.2,15,11.8,18.8,7,8,1,0,33,79
040132,LEVI HOSPITAL,AR,71901,34.509945,-93.056649,,,Not Available,Not Available,Not Available,Not Available,Not Available,Not Available,Not Available,Not Available,Not Available,Not Available,Not Available,Not Available,Not Available,Not Available,Not Available,Not Available,Not Available,Not Available,Not Available,Not Available,Not Available,Not Available,Not Available,Not Available,Not Available,Not Available,Not Available,Not Available,Not Available,0,5,0,0,12,2
040134,"ARKANSAS HEART HOSPITAL, LLC",AR,72211,34.739159,-92.394421,97.0,,Not Available,Not Available,10.4,8.4,13.0,3.40,1.30,5.49,11.3,9.0,14.1,3.76,1.1,6.41,5.12,0,11.9,0.64,0,1.53,147.75,101.97,193.53,16.7,12.9,21.6,12.8,9.4,17.2,0,0,0,0,2,78
040137,ST VINCENT MEDICAL CENTER/NORTH,AR,72120,34.814378000000005,-92.207514,,,Not Available,Not Available,13.6,10.1,18.3,4.13,1.26,7.00,13.1,9.8,17.2,5.12,1.18,9.06,7.51,0,15.72,1.30,0,2.76,Not Available,Not Available,Not Available,17,13.2,21.9,14.3,10.3,19.0,1,1,1,0,23,15
040147,ARKANSAS SURGICAL HOSPITAL,AR,72118,34.801458000000004,-92.347687,,1.7,1.3,2.3,Not Available,Not Available,Not Available,1.76,0.00,3.77,Not Available,Not Available,Not Available,3.21,0.09,6.33,2.82,0,7.24,1.16,0,2.54,Not Available,Not Available,Not Available,Not Available,Not Available,Not Available,Not Available,Not Available,Not Available,0,20,0,0,9,22
040152,NORTHWEST HEALTH PHYSICIANS SPECIALTY HOSPITAL,AR,72703,36.12133,-94.13373,,2.9,1.8,4.4,Not Available,Not Available,Not Available,4.18,1.47,6.89,Not Available,Not Available,Not Available,4.57,0.85,8.3,4.88,0,11.51,1.27,0,2.72,Not Available,Not Available,Not Available,Not Available,Not Available,Not Available,Not Available,Not Available,Not Available,0,9,0,0,2,13
040153,WADLEY REGIONAL MEDICAL CENTER AT HOPE,AR,71801,33.648008000000004,-93.587052,,,Not Available,Not Available,11.5,8.5,15.9,Not Available,Not Available,Not Available,Not Available,Not Available,Not Available,Not Available,Not Available,Not Available,Not Available,Not Available,Not Available,Not Available,Not Available,Not Available,Not Available,Not Available,Not Available,15.7,12.4,19.3,13.5,10.1,17.7,1,1,0,0,13,10
040154,BAPTIST HEALTH MEDICAL CENTER-CONWAY,AR,72032,35.07431,-92.420985,,,Not Available,Not Available,14,9.6,20.3,4.21,1.31,7.11,12.8,9.4,17.1,5.14,1.19,9.09,7.61,0,15.88,1.30,0,2.77,Not Available,Not Available,Not Available,17,12.3,23.0,Not Available,Not Available,Not Available,6,21,0,0,31,15
040155,ARKANSAS CONTINUED CARE HOSPITAL OF JONESBORO,AR,72401,35.811403000000006,-90.669085,,,Not Available,Not Available,Not Available,Not Available,Not Available,Not Available,Not Available,Not Available,Not Available,Not Available,Not Available,Not Available,Not Available,Not Available,Not Available,Not Available,Not Available,Not Available,Not Available,Not Available,Not Available,Not Available,Not Available,Not Available,Not Available,Not Available,Not Available,Not Available,Not Available,0,0,0,0,0,0
041300,NORTH LOGAN MERCY HOSPITAL,AR,72855,35.289988,-93.725419,,,Not Available,Not Available,Not Available,Not Available,Not Available,Not Available,Not Available,Not Available,Not Available,Not Available,Not Available,Not Available,Not Available,Not Available,Not Available,Not Available,Not Available,Not Available,Not Available,Not Available,Not Available,Not Available,Not Available,Not Available,Not Available,Not Available,Not Available,Not Available,Not Available,0,0,0,0,25,7
041302,RIVER VALLEY MEDICAL CENTER,AR,72834,35.220917,-93.156987,,,Not Available,Not Available,Not Available,Not Available,Not Available,Not Available,Not Available,Not Available,Not Available,Not Available,Not Available,Not Available,Not Available,Not Available,Not Available,Not Available,Not Available,Not Available,Not Available,Not Available,Not Available,Not Available,Not Available,18.7,14.4,24.0,Not Available,Not Available,Not Available,1,0,1,0,8,1
041303,MERCY HOSPITAL TURNER MEMORIAL,AR,72949,35.486118,-93.833805,,,Not Available,Not Available,Not Available,Not Available,Not Available,Not Available,Not Available,Not Available,Not Available,Not Available,Not Available,Not Available,Not Available,Not Available,Not Available,Not Available,Not Available,Not Available,Not Available,Not Available,Not Available,Not Available,Not Available,19,14.0,25.2,Not Available,Not Available,Not Available,0,0,0,0,8,17
041304,"EUREKA SPRINGS HOSPITAL, LLC",AR,72632,36.400433,-93.744699,,,Not Available,Not Available,Not Available,Not Available,Not Available,Not Available,Not Available,Not Available,Not Available,Not Available,Not Available,Not Available,Not Available,Not Available,Not Available,Not Available,Not Available,Not Available,Not Available,Not Available,Not Available,Not Available,Not Available,16.7,12.2,21.7,Not Available,Not Available,Not Available,0,0,0,0,6,0
041305,MERCY HOSPITAL WALDRON,AR,72958,34.896784999999994,-94.106078,,,Not Available,Not Available,Not Available,Not Available,Not Available,Not Available,Not Available,Not Available,Not Available,Not Available,Not Available,Not Available,Not Available,Not Available,Not Available,Not Available,Not Available,Not Available,Not Available,Not Available,Not Available,Not Available,Not Available,15.8,11.5,21.4,Not Available,Not Available,Not Available,0,0,0,0,5,10
041306,"IZARD COUNTY MEDICAL CENTER, LLC",AR,72519,36.126336,-92.128587,,,Not Available,Not Available,11.7,7.9,16.9,Not Available,Not Available,Not Available,Not Available,Not Available,Not Available,Not Available,Not Available,Not Available,Not Available,Not Available,Not Available,Not Available,Not Available,Not Available,Not Available,Not Available,Not Available,17,12.6,22.6,Not Available,Not Available,Not Available,0,0,0,0,2,2
041307,CROSSRIDGE COMMUNITY HOSPITAL,AR,72396,35.220353,-90.787421,,,Not Available,Not Available,11.8,8.2,16.6,Not Available,Not Available,Not Available,Not Available,Not Available,Not Available,Not Available,Not Available,Not Available,Not Available,Not Available,Not Available,Not Available,Not Available,Not Available,Not Available,Not Available,Not Available,17.7,13.5,22.5,Not Available,Not Available,Not Available,0,4,1,0,13,0
041308,MCGEHEE HOSPITAL,AR,71654,33.618285,-91.393066,,,Not Available,Not Available,Not Available,Not Available,Not Available,Not Available,Not Available,Not Available,Not Available,Not Available,Not Available,Not Available,Not Available,Not Available,Not Available,Not Available,Not Available,Not Available,Not Available,Not Available,Not Available,Not Available,Not Available,16,11.5,21.5,Not Available,Not Available,Not Available,0,1,0,0,5,0
041309,LAWRENCE MEMORIAL HOSPITAL,AR,72476,36.074701,-90.966982,,,Not Available,Not Available,10.5,7.2,15.1,Not Available,Not Available,Not Available,Not Available,Not Available,Not Available,Not Available,Not Available,Not Available,Not Available,Not Available,Not Available,Not Available,Not Available,Not Available,Not Available,Not Available,Not Available,18.5,14.3,23.6,Not Available,Not Available,Not Available,0,2,2,0,11,4
041310,STONE COUNTY MEDICAL CENTER,AR,72560,35.855598,-92.082727,,2.2,1.3,3.8,11.3,7.5,16.2,Not Available,Not Available,Not Available,Not Available,Not Available,Not Available,Not Available,Not Available,Not Available,Not Available,Not Available,Not Available,Not Available,Not Available,Not Available,Not Available,Not Available,Not Available,13.4,9.9,17.5,Not Available,Not Available,Not Available,0,4,0,0,12,9
041311,HOWARD MEMORIAL HOSPITAL,AR,71852,33.950926,-93.880772,,,Not Available,Not Available,14.4,9.8,20.2,Not Available,Not Available,Not Available,Not Available,Not Available,Not Available,Not Available,Not Available,Not Available,Not Available,Not Available,Not Available,Not Available,Not Available,Not Available,Not Available,Not Available,Not Available,18.1,14.2,22.9,Not Available,Not Available,Not Available,1,0,0,0,18,14
041312,BAPTIST HEALTH MEDICAL CENTER HEBER SPINGS,AR,72543,35.506578000000005,-92.001319,,2.5,1.5,4.3,11,7.9,15.5,Not Available,Not Available,Not Available,Not Available,Not Available,Not Available,Not Available,Not Available,Not Available,Not Available,Not Available,Not Available,Not Available,Not Available,Not Available,Not Available,Not Available,Not Available,16.9,13.3,20.9,13.5,9.5,19.2,0,3,0,0,13,8
041313,OZARK HEALTH,AR,72031,35.559375,-92.449913,95.0,2.3,1.3,4.1,10.5,6.9,15.2,Not Available,Not Available,Not Available,Not Available,Not Available,Not Available,Not Available,Not Available,Not Available,Not Available,Not Available,Not Available,Not Available,Not Available,Not Available,Not Available,Not Available,Not Available,17,13.3,21.5,Not Available,Not Available,Not Available,2,3,4,0,21,13
041314,"DEWITT HOSPITAL & NURSING HOME, INC",AR,72042,34.279598,-91.336892,,,Not Available,Not Available,12,8.3,17.0,Not Available,Not Available,Not Available,Not Available,Not Available,Not Available,Not Available,Not Available,Not Available,Not Available,Not Available,Not Available,Not Available,Not Available,Not Available,Not Available,Not Available,Not Available,17.3,12.5,23.7,Not Available,Not Available,Not Available,0,0,0,0,16,1
041316,SOUTH MISSISSISSPI COUNTY REGIONAL MEDICAL CENTER,AR,72370,35.700249,-89.97493,,,Not Available,Not Available,11.9,8.4,16.7,Not Available,Not Available,Not Available,Not Available,Not Available,Not Available,Not Available,Not Available,Not Available,Not Available,Not Available,Not Available,Not Available,Not Available,Not Available,Not Available,Not Available,Not Available,14.2,10.7,18.7,Not Available,Not Available,Not Available,0,0,0,0,7,4
041317,DALLAS COUNTY MEDICAL CENTER,AR,71742,33.811158,-92.425058,,,Not Available,Not Available,Not Available,Not Available,Not Available,Not Available,Not Available,Not Available,Not Available,Not Available,Not Available,Not Available,Not Available,Not Available,Not Available,Not Available,Not Available,Not Available,Not Available,Not Available,Not Available,Not Available,Not Available,16.7,12.1,23.0,Not Available,Not Available,Not Available,0,1,0,0,12,1
041318,MERCY HOSPITAL BOONEVILLE,AR,72927,35.140978999999994,-93.934703,,,Not Available,Not Available,Not Available,Not Available,Not Available,Not Available,Not Available,Not Available,Not Available,Not Available,Not Available,Not Available,Not Available,Not Available,Not Available,Not Available,Not Available,Not Available,Not Available,Not Available,Not Available,Not Available,Not Available,17,12.1,23.2,Not Available,Not Available,Not Available,0,1,0,0,5,13
041319,"DE QUEEN MEDICAL CENTER, INC",AR,71832,34.046642,-94.351919,,,Not Available,Not Available,14.9,10.5,20.9,Not Available,Not Available,Not Available,Not Available,Not Available,Not Available,Not Available,Not Available,Not Available,Not Available,Not Available,Not Available,Not Available,Not Available,Not Available,Not Available,Not Available,Not Available,14.2,10.5,18.8,Not Available,Not Available,Not Available,0,1,0,0,3,19
041320,LITTLE RIVER MEMORIAL HOSPITAL,AR,71822,33.669571999999995,-94.135025,,,Not Available,Not Available,Not Available,Not Available,Not Available,Not Available,Not Available,Not Available,Not Available,Not Available,Not Available,Not Available,Not Available,Not Available,Not Available,Not Available,Not Available,Not Available,Not Available,Not Available,Not Available,Not Available,Not Available,15.9,11.5,21.0,Not Available,Not Available,Not Available,0,0,0,0,17,4
041321,BAPTIST HEALTH MEDICAL CENTER-ARKADELPHIA,AR,71923,34.122802,-93.08797,,,Not Available,Not Available,11.1,7.5,16.1,Not Available,Not Available,Not Available,Not Available,Not Available,Not Available,Not Available,Not Available,Not Available,Not Available,Not Available,Not Available,Not Available,Not Available,Not Available,Not Available,Not Available,Not Available,20.9,16.7,25.7,14.1,10.1,18.9,2,4,3,0,9,15
041322,FULTON COUNTY HOSPITAL,AR,72576,36.383359000000006,-91.811203,,,Not Available,Not Available,13,9.2,18.1,Not Available,Not Available,Not Available,Not Available,Not Available,Not Available,Not Available,Not Available,Not Available,Not Available,Not Available,Not Available,Not Available,Not Available,Not Available,Not Available,Not Available,Not Available,17.7,13.7,22.4,Not Available,Not Available,Not Available,0,0,0,0,5,3
041323,ASHLEY COUNTY MEDICAL CENTER,AR,71635,33.137206,-91.93878,,,Not Available,Not Available,10.8,7.6,15.0,Not Available,Not Available,Not Available,Not Available,Not Available,Not Available,Not Available,Not Available,Not Available,Not Available,Not Available,Not Available,Not Available,Not Available,Not Available,Not Available,Not Available,Not Available,14.3,10.9,18.3,16.1,12.1,20.9,2,1,0,0,24,6
041324,CHI ST VINCENT MORRILTON,AR,72110,35.16997,-92.721702,,,Not Available,Not Available,12.9,8.9,18.0,Not Available,Not Available,Not Available,Not Available,Not Available,Not Available,Not Available,Not Available,Not Available,Not Available,Not Available,Not Available,Not Available,Not Available,Not Available,Not Available,Not Available,Not Available,17.8,13.8,22.9,Not Available,Not Available,Not Available,1,0,0,0,13,8
041326,DELTA MEMORIAL HOSPITAL,AR,71639,33.873294,-91.4815,,,Not Available,Not Available,Not Available,Not Available,Not Available,Not Available,Not Available,Not Available,Not Available,Not Available,Not Available,Not Available,Not Available,Not Available,Not Available,Not Available,Not Available,Not Available,Not Available,Not Available,Not Available,Not Available,Not Available,16.1,12.0,21.4,13.9,10.3,18.7,0,1,0,0,4,2
041327,BRADLEY COUNTY MEDICAL CENTER,AR,71671,33.610538,-92.058665,,,Not Available,Not Available,11.2,7.6,16.2,Not Available,Not Available,Not Available,Not Available,Not Available,Not Available,Not Available,Not Available,Not Available,Not Available,Not Available,Not Available,Not Available,Not Available,Not Available,Not Available,Not Available,Not Available,14.7,11.3,19.0,Not Available,Not Available,Not Available,1,0,0,0,17,6
041328,CHICOT MEMORIAL MEDICAL CENTER,AR,71653,33.511592,-91.364525,93.0,,Not Available,Not Available,14.4,10.3,20.1,Not Available,Not Available,Not Available,Not Available,Not Available,Not Available,Not Available,Not Available,Not Available,Not Available,Not Available,Not Available,Not Available,Not Available,Not Available,Not Available,Not Available,Not Available,17.2,12.8,22.7,Not Available,Not Available,Not Available,0,0,0,0,7,7
041329,MERCY HOSPITAL BERRYVILLE,AR,72616,36.358225,-93.551993,,,Not Available,Not Available,15,10.6,21.1,Not Available,Not Available,Not Available,Not Available,Not Available,Not Available,Not Available,Not Available,Not Available,Not Available,Not Available,Not Available,Not Available,Not Available,Not Available,Not Available,Not Available,Not Available,18.9,14.5,24.2,Not Available,Not Available,Not Available,0,0,0,0,15,18
041330,PIGGOTT COMMUNITY HOSPITAL,AR,72454,36.390183,-90.204259,,,Not Available,Not Available,14.6,10.2,20.3,Not Available,Not Available,Not Available,Not Available,Not Available,Not Available,Not Available,Not Available,Not Available,Not Available,Not Available,Not Available,Not Available,Not Available,Not Available,Not Available,Not Available,Not Available,16.2,12.5,20.8,Not Available,Not Available,Not Available,0,3,0,0,20,5
041331,OZARKS COMMUNITY HOSPITAL OF GRAVETTE,AR,72736,36.408563,-94.45987,,,Not Available,Not Available,Not Available,Not Available,Not Available,Not Available,Not Available,Not Available,Not Available,Not Available,Not Available,Not Available,Not Available,Not Available,Not Available,Not Available,Not Available,Not Available,Not Available,Not Available,Not Available,Not Available,Not Available,13.8,9.8,19.0,Not Available,Not Available,Not Available,0,0,0,1,14,15
043300,ARKANSAS CHILDREN'S HOSPITAL,AR,72202,34.742822,-92.292006,,,Not Available,Not Available,Not Available,Not Available,Not Available,Not Available,Not Available,Not Available,Not Available,Not Available,Not Available,Not Available,Not Available,Not Available,Not Available,Not Available,Not Available,Not Available,Not Available,Not Available,Not Available,Not Available,Not Available,Not Available,Not Available,Not Available,Not Available,Not Available,Not Available,3,0,27,0,1,16
043301,"ARKANSAS CHILDREN'S NORTHWEST, INC",AR,72762,36.163325,-94.192602,,,Not Available,Not Available,Not Available,Not Available,Not Available,Not Available,Not Available,Not Available,Not Available,Not Available,Not Available,Not Available,Not Available,Not Available,Not Available,Not Available,Not Available,Not Available,Not Available,Not Available,Not Available,Not Available,Not Available,Not Available,Not Available,Not Available,Not Available,Not Available,Not Available,0,0,0,0,0,0
050002,ST ROSE HOSPITAL,CA,94545,37.632909999999995,-122.089742,94.0,3.1,1.8,5.1,11.7,8.7,15.5,4.26,1.68,6.84,12.8,10.0,16.1,4.93,1.06,8.8,8.56,0.86,16.26,1.30,0,2.77,164.71,115.82,213.59,17.5,14.5,20.6,12.9,9.9,17.0,0,7,0,0,2,25
050006,ST JOSEPH HOSPITAL,CA,95501,40.783103000000004,-124.14203899999998,,3.4,2.1,5.4,13.7,11.1,16.6,4.67,2.56,6.78,13,10.6,15.7,6.77,3.75,9.78,4.66,0,9.75,1.53,0.3,2.76,182.33,140.1,224.57,15.4,12.9,18.3,13.9,10.6,18.0,17,17,0,0,99,114
050007,MILLS-PENINSULA MEDICAL CENTER,CA,94010,37.594398,-122.383356,,3.2,2.1,4.7,9,7.1,11.4,4.34,2.30,6.38,12.3,9.8,15.4,5.65,2.88,8.42,9.76,4.93,14.59,0.74,0,1.84,157.91,116.25,199.58,13.1,10.9,15.8,14,11.4,17.5,56,33,3,3,52,98
050008,CALIFORNIA PACIFIC MEDICAL CTR-DAVIES CAMPUS HOSP,CA,94117,37.769114,-122.434696,,,Not Available,Not Available,11,7.6,15.5,4.77,2.17,7.37,Not Available,Not Available,Not Available,5.21,1.51,8.9,8.05,1.35,14.75,1.27,0,2.72,144.89,99.16,190.61,15.9,12.1,20.2,15.6,12.8,18.7,0,17,0,0,5,62
050009,QUEEN OF THE VALLEY MEDICAL CENTER,CA,94558,38.323554,-122.295968,,2.2,1.4,3.5,11.4,9.1,14.1,3.74,1.54,5.94,13.2,10.5,16.2,4.98,1.58,8.39,7.46,1.58,13.35,1.34,0.06,2.63,162.37,117.54,207.19,16.2,13.7,19.1,15.3,12.5,18.8,13,22,3,0,20,60
050013,ADVENTIST HEALTH ST HELENA,CA,94574,38.541959999999996,-122.475344,95.0,1.6,1.1,2.3,10.2,7.4,13.4,3.42,1.48,5.36,13.6,10.6,17.1,5.18,2.43,7.93,6.90,1.59,12.2,1.06,0.13,2,175.87,131.88,219.85,16,12.7,19.7,16.2,12.4,20.3,16,28,0,0,12,64
050014,SUTTER AMADOR HOSPITAL,CA,95642,38.349561,-120.765905,,2.9,1.7,5.0,12.8,9.6,17.0,5.11,2.42,7.80,Not Available,Not Available,Not Available,5.50,1.7,9.31,6.95,0.07,13.84,1.27,0,2.71,Not Available,Not Available,Not Available,16.7,13.3,20.8,16.2,12.6,20.2,4,13,0,0,29,21
050017,MERCY GENERAL HOSPITAL,CA,95819,38.569385,-121.452482,,4.2,2.6,6.5,12.3,9.7,15.5,4.84,2.92,6.75,11.6,9.4,14.0,5.62,2.86,8.37,10.03,4.65,15.41,1.46,0.45,2.48,137.49,100.61,174.36,14.3,11.5,17.3,13.4,10.2,17.4,10,31,0,2,22,100
050022,RIVERSIDE COMMUNITY HOSPITAL,CA,92501,33.975677000000005,-117.380374,,3.2,1.8,5.6,9.7,7.4,12.4,2.96,0.80,5.11,14.7,11.9,18.2,4.21,0.88,7.53,8.53,2.65,14.4,1.08,0,2.41,201.02,160.31,241.74,15.5,13.0,18.2,13.6,10.6,17.2,4,13,6,3,22,82
050024,PARADISE VALLEY HOSPITAL,CA,91950,32.686336,-117.083243,,2.8,1.5,4.7,9.1,6.8,12.1,3.59,0.92,6.26,13.1,10.2,16.4,6.44,2.58,10.3,6.98,0,14.91,1.25,0,2.69,Not Available,Not Available,Not Available,16.3,13.9,19.0,12.5,9.3,16.2,0,13,0,0,7,9
050025,UC SAN DIEGO HEALTH HILLCREST - HILLCREST MED CTR,CA,92103,32.753717,-117.165914,,1.7,1.1,2.7,10.1,8.1,12.6,6.24,4.77,7.72,11,8.6,14.0,5.01,3.01,7,5.21,1.94,8.48,0.93,0.06,1.81,140.41,111.15,169.68,12.6,10.5,14.9,13.4,10.7,16.6,48,35,12,0,57,408
050026,GROSSMONT HOSPITAL,CA,91942,32.779435,-117.009178,,2.1,1.3,3.3,11.1,9.2,13.4,3.44,1.68,5.20,13.3,10.7,16.5,5.44,2.52,8.36,7.68,2.99,12.37,1.22,0,2.44,174.31,138.37,210.24,17.3,15.2,19.7,14.3,11.8,17.1,4,37,0,0,55,150
050028,MAD RIVER COMMUNITY HOSPITAL,CA,95521,40.903309,-124.090847,,,Not Available,Not Available,10.5,7.2,15.2,3.96,1.15,6.77,Not Available,Not Available,Not Available,5.81,1.9,9.72,6.96,0,14.87,1.29,0,2.75,Not Available,Not Available,Not Available,14.3,10.7,18.7,13.6,9.8,18.1,8,26,0,1,67,52
050030,OROVILLE HOSPITAL,CA,95966,39.504535,-121.542106,,3.1,2.0,4.7,7,5.5,9.0,3.03,0.96,5.10,12.1,9.6,14.9,9.60,6.58,12.62,5.46,0.41,10.51,2.23,0.87,3.59,161.77,116.08,207.46,9.5,8.1,11.0,10.3,8.0,13.1,43,28,3,1,149,89
050036,BAKERSFIELD MEMORIAL HOSPITAL,CA,93301,35.390474,-119.006836,,2.1,1.2,3.4,15.4,12.2,19.0,2.40,0.21,4.58,15.7,12.7,19.2,4.52,1.28,7.76,8.41,2.56,14.26,1.01,0,2.3,202.89,160.43,245.34,19.2,15.7,23.1,16.6,12.8,21.2,2,8,0,0,4,57
050038,SANTA CLARA VALLEY MEDICAL CENTER,CA,95128,37.313702,-121.931888,,,Not Available,Not Available,10.5,7.4,14.8,4.26,1.80,6.72,13.8,10.4,18.3,4.89,1.3,8.47,9.23,2.66,15.81,1.18,0,2.57,169.03,125.49,212.57,20.6,16.1,26.0,16,12.0,20.9,24,9,0,1,56,59
050039,ENLOE MEDICAL CENTER,CA,95926,39.742284000000005,-121.849128,,2.4,1.7,3.5,12.9,10.9,15.2,3.85,2.18,5.51,14.7,12.4,17.4,3.82,1.01,6.62,5.62,1.15,10.09,1.45,0.25,2.65,144.45,106.03,182.88,17.3,15.4,19.5,15.1,12.6,18.1,25,34,0,1,47,133
050040,LAC/OLIVE VIEW-UCLA MEDICAL CENTER,CA,91342,34.325912,-118.445513,,,Not Available,Not Available,11.6,7.7,17.0,4.66,1.80,7.52,Not Available,Not Available,Not Available,4.92,1.05,8.78,8.78,0.99,16.57,1.29,0,2.76,Not Available,Not Available,Not Available,16.1,12.2,20.7,Not Available,Not Available,Not Available,0,6,3,0,1,4
050042,ST ELIZABETH COMMUNITY HOSPITAL,CA,96080,40.148834,-122.218303,,2.3,1.3,4.0,14,10.5,17.9,3.02,0.38,5.66,Not Available,Not Available,Not Available,4.75,0.95,8.55,6.20,0,13.67,1.29,0,2.74,Not Available,Not Available,Not Available,17.9,14.4,21.8,16.2,12.2,21.2,5,5,0,0,19,20
050043,ALTA BATES SUMMIT MEDICAL CENTER,CA,94609,37.820784,-122.26328,,2.7,1.7,4.3,8.6,6.8,10.8,3.91,1.97,5.84,12.2,10.0,14.8,4.82,2.06,7.57,7.67,2.73,12.61,1.21,0.12,2.31,155.61,113.63,197.6,14.5,12.3,16.9,12.2,9.7,15.0,23,22,0,0,65,172
050045,EL CENTRO REGIONAL MEDICAL CENTER,CA,92243,32.781498,-115.56862,89.0,2.6,1.5,4.4,10.2,7.7,13.4,4.52,1.86,7.18,12.1,9.5,15.4,5.71,1.83,9.59,6.61,0,14.32,1.30,0,2.76,Not Available,Not Available,Not Available,15.5,13.2,18.2,14.1,10.8,17.9,4,6,0,2,35,34
050047,CALIFORNIA PACIFIC MEDICAL CTR-PACIFIC CAMPUS HOSP,CA,94115,37.791321,-122.430983,,2.3,1.6,3.2,10.1,8.1,12.3,5.07,3.47,6.66,13.7,11.0,16.7,6.19,4.02,8.37,6.91,3.69,10.13,1.32,0.28,2.36,143.05,106.92,179.18,13.7,11.4,16.5,12.9,10.4,15.7,76,30,0,0,42,180
050054,SAN GORGONIO MEMORIAL HOSPITAL,CA,92220,33.932829,-116.94673200000001,,2.5,1.4,4.6,10.1,7.1,14.0,4.22,1.32,7.12,13,10.0,16.6,5.18,1.21,9.14,7.57,0,15.82,1.31,0,2.78,Not Available,Not Available,Not Available,19.1,15.2,23.8,Not Available,Not Available,Not Available,2,1,0,0,15,8
050055,CALIFORNIA PACIFIC MEDICAL CTR - ST. LUKE'S CAMPUS,CA,94110,37.74805,-122.420987,,2.4,1.3,4.3,10,7.2,13.5,4.76,2.03,7.49,Not Available,Not Available,Not Available,5.52,1.71,9.33,7.89,0.53,15.26,1.66,0.23,3.08,Not Available,Not Available,Not Available,13,9.8,17.0,14.1,10.4,18.8,3,12,0,0,12,51
050056,ANTELOPE VALLEY HOSPITAL,CA,93534,34.689371,-118.158476,,,Not Available,Not Available,14.6,11.3,19.3,2.91,0.65,5.17,13.6,10.7,17.1,6.39,2.92,9.86,14.26,8.39,20.12,1.19,0,2.58,170.81,127.13,214.48,23,19.6,26.7,16,12.5,20.2,7,7,0,0,16,41
050057,KAWEAH DELTA MEDICAL CENTER,CA,93291,36.327415,-119.294172,,2.6,1.7,3.9,12.3,10.6,14.2,4.03,2.24,5.83,12.3,10.4,14.5,5.03,2.1,7.96,3.62,0,8.61,1.14,0,2.33,188.48,150.6,226.37,16.5,14.8,18.4,13.3,10.8,16.1,12,11,4,2,65,116
050058,GLENDALE MEM HOSPITAL & HLTH CENTER,CA,91204,34.127789,-118.257795,,2.3,1.4,3.9,8.4,6.5,10.6,3.16,0.81,5.52,11.9,9.3,14.9,4.91,1.53,8.28,4.14,0,10.24,1.37,0.07,2.68,156.34,108.32,204.35,14.9,12.7,17.2,11.9,8.9,15.4,2,10,0,0,27,23
